District,Nitrogen___High,Nitrogen_Medium,Nitrogen_Low,Phosphorous_High,Phosphorous_Medium,Phosphorous_Low,Potassium_High,Potassium_Medium,Potassium_Low,OC_High,OC_Medium,OC_Low,EC_Saline,EC__Non_Saline,pH_Acidic,pH_Neutral,pH_Alkaline,Recommended_Crop,Latitude,Longitude
 SOUTH ANDAMAN ,1.84343742813062,1.01018167171695,0.59877419419551,0.720349781482634,0.867292913291702,0.360185408494854,0.666887824481617,0.617994658285413,0.958217809016963,1.02788854836132,0.468387773486627,0.302935356896074,1.27148516089381,0.443473619017304,1.15386805048988,0.149392846034534,1.03100849791164,Rice,11.6234,92.7265
 MIDDLE ANDAMAN ,-0.533231070452163,0.955593156507114,1.04229931126093,0.672873220103301,0.386463804613148,0.447063081624834,0.626315469282228,0.416190190243998,0.814407848013707,1.0030958792893,0.403270191476644,0.482101955492864,1.39785577210088,-0.158474272945433,1.35965397497241,0.3401998745126,1.03100849791164,Rice,12.9304,92.7456
 NORTH ANDAMAN ,1.84343742813062,1.09889413840141,0.175046378355796,0.585845502801537,0.409925175885908,0.498598009615748,0.862071055961147,0.829094937943965,0.814407848013707,0.989995558946004,0.773757534106037,0.349257646825852,1.29172855698064,0.57268700698839,1.2182784655446,0.30747588049625,1.10166593502118,Rice,13.2404,93.0096
 TAWANG,1.84343742813062,1.07579806182082,0.417145602139253,0.742947606932645,0.281278353774909,0.669210149872853,0.415218335897732,0.674620862790843,0.425570558322963,1.12580305060716,0.563844765215673,0.446140170776375,1.32761311106132,0.339631622611491,1.27257864392301,0.30747588049625,1.20864393421573,Millet,27.5861,91.8697
HYDERABAD,-0.533231070452163,0.848353499754351,0.399928907816341,0.757624425912942,0.307719350624236,0.40522873271463,0.466268671251135,0.0276647188516616,0.9883926098706,1.15566265495811,0.639005270629358,0.594699946705129,1.24939600481659,0.222153322735699,1.31914887477116,0.323962141263995,1.159783431196,Rice,17.385,78.4867
WEAT KAMENG,-0.533231070452163,1.03120491426949,0.623910324990026,0.846340505043483,0.333367825067331,0.669210149872853,0.825685288061371,0.465901715614696,1.00279948752448,0.852935498943496,0.134587694375293,0.336871147735539,1.24939600481659,0.410745584965397,1.2182784655446,0.199710005532746,0.670627747097346,Rice,27.3,92.4
GUWAHATI,-0.533231070452163,1.02433726413286,0.543875846640349,0.604139788170116,0.102133917707744,0.802155549326578,0.786731532347819,0.359572127275733,0.891572562615488,1.00946396507806,0.846525197747251,0.597812298472704,0.520230551684669,0.477720929619761,1.27257864392301,0.42791866039748,1.159783431196,Rice,26.1445,91.7362
SONITPUR,1.84343742813062,0.99542858493712,0.394112350659808,0.735494405400692,0.748343422755563,0.328105447546895,0.773109298547867,0.649561792928294,0.74746485699758,0.947439240196736,0.754241632295386,0.361468419108743,1.32761311106132,0.489714495486788,1.39529766300388,0.196636848493287,1.10166593502118,Rice,26.6338,92.8
JORHT,-0.533231070452163,0.729215572405638,0.610284660598583,0.630711327923403,0.56873453053582,0.360185408494854,0.791198290869436,0.41983617523378,0.74746485699758,1.07263932727247,0.598341669904753,0.594699946705129,1.09757442260859,0.257861817724456,0.978519866060535,0.595984345738681,1.20864393421573,Millet,26.75,94.2167
PATANA,1.84343742813062,0.799995904010244,0.445098217603556,0.430549981377637,0.649432700046608,0.794641018947266,0.854189547137891,0.147463148434185,0.670204172351569,1.07263932727247,0.747605485581832,0.00937309173688737,1.24939600481659,0.418380768246553,1.2182784655446,0.7787020366819,1.159783431196,Millet,25.5941,85.1376
GAYA,1.84343742813062,0.679461015175716,0.414299985718379,0.27412447132798,0.539101695920555,0.687502628151716,0.709824219282877,0.390230293372387,0.926035238496763,0.822185184704161,0.72728452093522,0.15664481140481,0.945143539438037,0.278161945819741,0.85269086413595,0.326685444826109,1.03100849791164,Millet,24.7969,85.0002
NALANDA,1.84343742813062,0.880875276964015,0.111536695897695,0.475527519930005,-0.0377261948201084,0.311377678332601,0.406210144756878,0.701706202222605,0.97354106144642,0.800149137804331,0.773757534106037,0.720066507641782,1.09757442260859,0.5133439067426,1.15386805048988,0.654549637834083,0.942645565958675,Rice,25.2,85.5167
RAIPUR,1.96887247064725,0.848353499754351,0.33364405970177,0.750323723880213,0.555680895656742,0.498598009615748,0.666887824481617,0.397727157763706,0.770790734041251,0.989995558946004,0.691946500013517,0.253931653889545,1.0042643462222,0.559248627201179,0.85269086413595,0.718185493706646,1.20864393421573,Millet,21.2514,81.6296
BILASPUR,1.84343742813062,0.980028760075397,0.503617222318736,0.604139788170116,0.447700001960029,0.929906725691792,0.614142060767346,0.950252438846746,0.814407848013707,1.05654311483578,0.713378069845958,0.420073819120189,1.24939600481659,0.377060165257418,1.39529766300388,0.552311100024679,1.20864393421573,Rice,22.0797,82.1391
DURG,-0.533231070452163,1.09889413840141,0.75421782928074,0.595052780508713,0.707177729663962,0.522778915014705,0.899881900352112,0.486377580663167,0.909108035211065,0.881281689713305,0.684642967436173,0.607087668294013,1.24939600481659,0.50865538926226,1.15386805048988,0.116621564909484,0.942645565958675,Rice,21.1905,81.2849
DADRA AND NAGAR HAVELI ,1.84343742813062,0.87035184456808,0.691302486582527,0.212520408296362,0.734812450677451,0.447063081624834,0.9521798204327,0.462442594791744,0.834859700342314,1.00946396507806,0.527372156713684,0.709073076547789,1.19840541972243,0.377060165257418,0.978519866060535,0.462118487007143,1.20864393421573,Millet,20.2704,73.0083
DAMAN,1.84343742813062,0.555737452424675,0.501039763487892,0.496948620472523,0.378502393002399,0.473390882543037,0.829848419654961,0.503088158189662,0.834859700342314,1.07263932727247,0.786454301120472,0.0750967749007373,1.32761311106132,0.415841318330988,1.35965397497241,0.520740252174507,1.03100849791164,Rice,20.4143,72.8328
DIU,-0.533231070452163,0.938317675782204,0.14789761222504,0.799931831521731,0.312047643214886,0.705260142679108,0.704638658689867,0.427082707070668,0.97354106144642,1.0619943627943,0.589890409876898,0.315820263689161,1.13531246295751,0.538807692068568,1.27257864392301,0.334814356818664,0.942645565958675,Rice,20.4143,72.8328
NORTH GOA,1.84343742813062,0.799995904010244,0.623910324990026,0.793051455975286,0.587979207731686,0.911402526354965,0.968578462770045,0.617994658285413,0.814407848013707,0.915898764712355,-0.529424956080109,0.791201012279637,1.24939600481659,0.303722001643642,1.2182784655446,0.410419389064592,1.159783431196,Millet,15.6,73.8
BAGA,-0.533231070452163,0.901052766641254,0.752251309579668,0.720349781482634,0.113191578785926,0.610760288628491,0.749626416485946,0.696350614230919,1.03037645905488,0.738540429337206,0.798911645163559,0.0635557447874695,1.27148516089381,0.480129400233222,1.35965397497241,0.44514844168325,0.0370329773491838,Rice,15.575,73.754
ANJUNA,1.84343742813062,0.744466233119846,0.197592604027563,0.453411177101756,0.491027513260063,0.747512939909411,0.804385094514745,0.290504007975889,0.579075923396579,1.0030958792893,0.792712305663684,0.267582752555882,1.35854181429085,0.701604849673045,1.2182784655446,0.304703360687293,1.20864393421573,Millet,15.5833,73.7333
AHAMDABAD,-0.533231070452163,0.713332933266472,0.577684466837246,0.793051455975286,-0.0310849597164894,0.982343023435293,0.777687665742856,0.311412310564756,0.74746485699758,0.996607849106948,0.185798974419842,0.600914317192151,1.32761311106132,0.754718272982677,1.2182784655446,0.437796609831802,0.942645565958675,Rice,23.0258,72.5873
SURAT,-0.533231070452163,0.910736019830714,0.744344967524042,0.764851328064947,0.337569290224867,0.156605650639959,0.327997380771167,0.393986858457237,0.670204172351569,1.0030958792893,0.817168968823394,0.559758688485082,1.27148516089381,0.172610834495808,1.27257864392301,0.379763527342328,1.10166593502118,Rice,21.178,72.8119
RAJCOAT,-0.533231070452163,1.08172059947364,0.456032257959393,0.630711327923403,0.661261612123394,0.87265722703387,0.327997380771167,0.709683543995222,0.926035238496763,0.969366394006257,0.798911645163559,0.320072190013358,1.22516069437478,0.554735936401782,1.07580207242956,0.15582063106206,1.159783431196,Millet,22.3039,70.8022
GURUGRAM,1.84343742813062,1.05102709490357,0.827973822070484,0.356911306677489,0.597455523236484,0.892331736444784,0.739944124143408,0.371197695492706,1.09305347985571,0.996607849106948,0.545870230672667,0.604006081297172,1.13531246295751,0.64197424447817,1.15386805048988,0.235891186741233,1.20864393421573,Millet,28.4595,77.0266
FARIDABAD,1.84343742813062,1.01733129385285,0.436806657738511,0.547742908856539,0.525621007733797,0.730961300081378,0.638220875028078,0.269058048136309,0.670204172351569,0.862633545964977,0.614917083166528,0.0577202769717296,1.31037074283489,0.450897099136923,1.07580207242956,0.746918582445852,1.03100849791164,Millet,28.4112,77.3132
AMBALA,1.84343742813062,1.08172059947364,0.0777009548406877,0.799931831521731,0.522219801304657,0.787033492472632,0.368556032130457,0.690964686432829,0.85449906489746,0.890255262491896,0.116484483000542,0.813816949297871,1.24939600481659,0.392730564736138,1.31914887477116,0.205828889481618,1.25044539303051,Millet,30.3782,76.7767
THIRUBAMANTHAPURAN,1.84343742813062,0.799995904010244,0.533979415856159,0.356911306677489,0.307719350624236,0.678425337507807,0.955498205333946,0.215191531223862,0.641593207588279,0.842971005286663,0.662226146687877,0.640334717693753,1.27148516089381,0.448427848237932,1.27257864392301,0.563382396399779,1.159783431196,Rice,8.5241,76.9366
KOLLAM,1.84343742813062,1.01733129385285,0.59877419419551,0.757624425912942,0.458728354155366,0.534510833939611,0.6556022117975,0.41983617523378,0.814407848013707,1.1474054957782,0.508317356721713,0.619313763687419,1.09757442260859,0.366492092394322,1.07580207242956,0.727837335354063,1.25044539303051,Millet,8.8811,76.5847
KOTTYAM,-0.533231070452163,0.972069265279706,0.490654410681577,0.742947606932645,0.525621007733797,0.486128331639367,0.877505702394346,0.319631866563271,0.85449906489746,1.21845618630274,0.488669324798484,0.161795502419963,1.22516069437478,0.379686900310975,0.978519866060535,0.165386267846641,0.942645565958675,Millet,9.5916,76.5222
KARGIL,1.84343742813062,0.938317675782204,0.490654410681577,0.228474427981242,0.565488223726432,0.610760288628491,0.825685288061371,0.363464898401203,0.891572562615488,1.1474054957782,0.767316296984203,0.549995785616532,1.29172855698064,0.069372429353264,1.42697454650389,0.748810713771251,1.03100849791164,Rice,34.5577,76.1262
LADAKH ,1.84343742813062,1.04454517301143,0.684987754741937,0.772005993113578,0.511939996639074,0.650348235397776,0.666887824481617,0.652379354046856,0.834859700342314,1.00946396507806,0.508317356721713,0.672453827148212,1.19840541972243,0.420914646693292,1.2182784655446,0.800663622206631,0.942645565958675,Rice,34.2268,77.5619
Leh,1.84343742813062,0.955593156507114,0.42843513917121,0.517719211479477,0.413775595532828,0.650348235397776,0.768492441904717,0.585315938496447,0.793076637778198,0.962209012237942,0.457995671816941,0.187067208841696,1.34362322870143,0.506304202774323,1.27257864392301,0.545617654427401,0.827877621161334,Rice,34.1526,77.5771
MANIPUR ,1.84343742813062,0.963926755529981,0.523972775898559,0.316809965785992,0.487495005329902,0.579261735255329,0.744806670764925,0.182041386638177,0.697291024309037,0.573706718827752,0.792712305663684,0.423844937681562,1.24939600481659,0.289595260872651,1.07580207242956,0.499980345780818,1.03100849791164,Millet,24.6637,93.9063
Imphal East,-0.533231070452163,0.530811104953041,0.528990049389006,0.647881022068946,0.616127162329097,0.640692026569824,0.749626416485946,0.462442594791744,0.425570558322963,0.996607849106948,0.922464522768067,0.38930789968469,1.24939600481659,0.428483146686067,1.2182784655446,0.437796609831802,1.10166593502118,Rice,24.7911,93.9348
Bishnupur,1.84343742813062,1.02433726413286,0.261641881795814,0.0477737289226488,0.0680037959922109,0.486128331639367,0.614142060767346,0.251492289097322,0.770790734041251,0.776713681652269,0.436678661379499,0.211576649711171,1.22516069437478,0.0481253051258004,1.2182784655446,0.345558760830704,0.942645565958675,Rice,24.6304,93.7598
MEGHALAYA,1.84343742813062,0.773249640442391,0.414299985718379,0.162160935313269,0.272278632700405,0.522778915014705,0.626315469282228,0.172313702708221,0.74746485699758,0.822185184704161,0.713378069845958,0.182075573352356,1.22516069437478,0.768138768217934,0.681147037548676,0.285091388879185,1.28672123112405,Millet,25.467,91.3662
East Khasi Hills,-0.533231070452163,0.920166653676621,0.601087832986238,0.496948620472523,0.337569290224867,0.713948211699966,0.759140555983282,0.573139223291976,0.770790734041251,0.890255262491896,0.677256418631946,0.103224735141653,1.29172855698064,0.200762036271659,1.15386805048988,0.267987947254148,1.03100849791164,Rice,25.3805,91.7891
West Khasi Hills,1.84343742813062,0.987812823076547,0.67436856397842,0.343810916485033,0.658318026119058,0.650348235397776,0.482250131023675,0.233543341784868,0.723001968106236,1.01571620559112,0.403270191476644,0.311546982077929,1.19840541972243,0.458273716610846,0.978519866060535,0.569975342958891,0.942645565958675,Millet,25.5333,90.2
East Jaintia Hills,1.84343742813062,0.910736019830714,0.538941231802069,0.430549981377637,0.267742602680213,0.589945833899985,0.955498205333946,0.680100219084945,0.814407848013707,1.02788854836132,0.95255959940496,0.533490338544175,1.22516069437478,-0.0858855419528418,0.978519866060535,0.476464504213769,1.10166593502118,Millet,25.5,92.3333
West Jaintia Hills,1.84343742813062,0.799995904010244,0.607994046236173,0.585845502801537,0.508487634415397,0.722514096158544,0.782228197802917,0.462442594791744,0.793076637778198,1.02185649757207,0.343241372817038,0.315820263689161,1.16865811039165,0.0658622753672549,1.35965397497241,0.68080271925222,1.159783431196,Rice,25.567,91.9167
NAGALAND ,1.84343742813062,0.824960235668477,0.419981855142307,0.527873366786068,0.721092609339094,0.27640286098397,0.786731532347819,0.788457669561132,0.74746485699758,0.996607849106948,0.554920984694504,0.311546982077929,1.29172855698064,-0.199360865131666,1.31914887477116,0.139673560236762,1.159783431196,Rice,26,94
Kohima,1.84343742813062,0.987812823076547,0.601087832986238,0.50741260663293,0.56873453053582,0.579261735255329,0.813004132793459,0.0565680191362225,0.814407848013707,0.932021034957806,0.852244341467619,0.622345596299766,1.24939600481659,0.440988586663372,1.31914887477116,0.915149431123271,1.03100849791164,Rice,25.6751,94.1086
Dimapur,1.84343742813062,0.773249640442391,0.434025123772179,0.604139788170116,0.505022205360121,0.705260142679108,0.804385094514745,0.638206002841708,0.74746485699758,0.924051655937822,0.623047063405127,0.489124525341042,1.13531246295751,0.605650397353933,1.31914887477116,-0.103175201378688,1.20864393421573,Rice,25.9045,93.725
Cuttack,1.84343742813062,0.661349553478245,0.59877419419551,0.475527519930005,0.358276319525343,0.859185438856589,0.548775162742051,0.472779650355912,0.641593207588279,0.983254461422157,0.885568427285985,0.302935356896074,1.29172855698064,0.430995031501585,1.15386805048988,0.511559778862033,1.10166593502118,Millet,20.4625,85.8828
Puri,1.84343742813062,0.759130592804157,0.311407800447112,0.877759813868303,0.374494429064291,0.419506306445836,0.914314464324819,0.479604630889913,0.507937576595637,1.01571620559112,0.829067331992859,0.423844937681562,1.16865811039165,0.71955468037102,1.27257864392301,-0.425171580438193,1.03100849791164,Rice,19.8135,85.8312
Khordha,1.96887247064725,1.08754201743858,0.488038935565396,0.704875302668638,0.413775595532828,0.739293177289972,-0.0857210273779843,0.315532127094026,0.579075923396579,0.696058187421759,0.355724057876391,0.408662626186485,1.31037074283489,0.49209869143598,1.07580207242956,0.591689055043548,1.10166593502118,Millet,20.211,85.62
PUDUCHERRY ,1.84343742813062,1.05738935801089,0.445098217603556,0.537879772025413,0.451391172417217,0.898753838991063,0.817263648847168,0.594343695642577,0.873385561059059,1.03964187951585,0.572645266442546,0.482101955492864,1.0042643462222,0.484931657448361,1.27257864392301,0.843480215411016,1.03100849791164,Rice,11.9416,79.8083
Karaikal,1.84343742813062,1.02433726413286,0.730350872118651,0.585845502801537,0.532385970679332,0.687502628151716,0.862071055961147,-0.00238385765614635,0.926035238496763,0.710753833107728,0.232961424587855,0.496092851622315,1.35854181429085,0.309322549235285,1.31914887477116,0.490631967311445,1.03100849791164,Rice,10.912,79.83
Mahe,1.84343742813062,0.920166653676621,0.233803730190863,0.38236558817821,0.643463024844022,0.824163960370124,0.782228197802917,0.427082707070668,0.54472366293947,1.11212674791129,0.247893990455345,0.607087668294013,1.16865811039165,0.234187876793358,0.85269086413595,0.415447271582088,1.03100849791164,Millet,11.7157,75.5406
East SIKKIM ,1.84343742813062,0.445386898302513,0.370441131170236,0.517719211479477,0.840685440753324,0.794641018947266,0.6556022117975,0.493099398199349,0.873385561059059,1.07783804384099,0.72728452093522,0.553261593124636,1.43074031220137,0.0728704133684803,1.07580207242956,0.371964511148613,1.159783431196,Millet,27.2114,88.637
West SIKKIM,-0.533231070452163,0.963926755529981,0.275210941049939,0.639348747477266,0.46600625462332,0.460373480226483,0.490064497149796,0.516235512220752,0.85449906489746,1.13893438936705,0.563844765215673,0.0976792410157615,1.32761311106132,0.475307532059205,1.27257864392301,0.103205265335708,1.28672123112405,Millet,27.349,88.2467
North SIKKIM ,1.84343742813062,1.05738935801089,0.14789761222504,0.806747074691376,0.631410565088804,0.824163960370124,0.782228197802917,0.761234103067909,0.328002261473526,1.03381588785083,0.517916546246622,0.816298432510041,1.19840541972243,0.40048593590631,0.978519866060535,-0.115862081625988,0.827877621161334,Rice,27.6339,88.5974
Nalgonda,1.84343742813062,1.0028827587526,0.69339807898746,0.697009536228746,0.532385970679332,0.852338048735314,0.95879702839488,0.603283857790534,0.770790734041251,0.932021034957806,0.754241632295386,0.416286501876544,1.16865811039165,0.856641915028741,1.07580207242956,0.73932119201202,1.20864393421573,Millet,17.0561,79.2676
Mahbubnagar,1.84343742813062,0.836841522164595,0.556095610172084,0.883884209331365,0.429012557466164,0.892331736444784,0.644076814855747,0.600313416622702,0.271644935069558,1.09296696690299,0.654578168438481,0.66380094110619,1.32761311106132,-0.185525537142984,1.2182784655446,0.502305581856221,1.159783431196,Millet,16.7308,77.9838
Adilabad,-0.533231070452163,0.880875276964015,0.752251309579668,0.639348747477266,0.253986209339282,0.705260142679108,0.850206333904417,0.778646034399223,1.00279948752448,1.01571620559112,0.639005270629358,0.594699946705129,1.22516069437478,0.650369139123086,0.978519866060535,-0.21965763132818,1.20864393421573,Millet,19.6667,78.5333
TRIPURA ,1.84343742813062,1.06977105121735,0.541411917792947,0.343810916485033,0.480388537028876,0.669210149872853,0.699403309484195,0.465901715614696,0.54472366293947,0.776713681652269,0.699168957172124,0.446140170776375,1.32761311106132,-0.0146643177375557,1.2182784655446,0.304703360687293,1.159783431196,Millet,23.9408,91.9882
Dhalai,1.84343742813062,0.980028760075397,0.42843513917121,0.735494405400692,0.402173763052913,0.852338048735314,0.833980411936378,0.441397978558319,0.942393318331377,0.738540429337206,0.478610419032662,0.38538499161899,0.520230551684669,0.666992074179618,1.15386805048988,0.282259930065951,1.10166593502118,Millet,23.5,91.9167
Gomati,1.84343742813062,1.0028827587526,0.442343139662912,0.343810916485033,0.74565205200664,1.00431107095892,0.854189547137891,0.730636576538534,0.74746485699758,0.907554258613412,0.863537758821979,0.728230603233935,1.39785577210088,0.358500875408829,1.27257864392301,0.390076931647174,1.20864393421573,Millet,23.4433,91.8
SPSR NELLORE,-0.533231070452163,-0.654871054229865,-1.3574947715178,-1.5212014050701,-1.39919518931898,-1.06592772963661,-1.39433269210843,-1.32504795284993,-1.25551942958483,-1.166960617325,-0.845440685347881,-1.64828825489156,-0.901960309898636,-1.58490545086009,-0.989096849752476,-1.56806724896068,-0.894305227708336,Millet,14.4336,79.9661
Tirupati,-0.533231070452163,1.05738935801089,-0.223644274409575,0.527873366786068,-0.360356728924428,0.27640286098397,-0.019346086546279,-0.174331527170221,1.11597129185404,-0.0687409130205589,0.508317356721713,-0.12715040301337,0.297717855845681,-0.204020431035788,1.35965397497241,-0.239043444657946,-0.894305227708336,Rice,13.6288,79.4192
Kakinada,-0.533231070452163,-0.654871054229865,-1.58240693624332,-1.23511771434438,-1.65955413307123,-1.37303601065271,-1.11009944389359,-1.66743978801902,-1.25551942958483,-0.709601565148492,-1.4178460765337,-1.64828825489156,-0.901960309898636,-1.72493139925944,-0.00196277702588303,-1.82842447172673,-0.894305227708336,Rice,16.9333,82.2167
EAST GODAVARI,-0.533231070452163,-1.10896291959986,-1.44743806661197,-1.5212014050701,-1.65955413307123,-1.06592772963661,-1.39433269210843,-1.50946394636649,-1.25551942958483,-1.166960617325,-1.14114593758252,-1.64828825489156,-0.901960309898636,-1.72493139925944,-0.989096849752476,-1.71111429748972,-0.894305227708336,Millet,17.1167,81.8667
SRIKAKULAM,-0.533231070452163,1.74199717739356,2.45992293843192,1.20155635299844,2.63293176974999,2.11232300289865,2.16125626097424,2.17035753284589,0.793076637778198,1.68969951537136,2.75622240664243,1.50598227988456,1.22516069437478,2.89442700057901,1.31914887477116,2.82859822934075,-0.894305227708336,Rice,18.2969,83.8964
Bapatla,-0.533231070452163,0.729215572405638,-0.23702452274317,-1.23511771434438,-0.319453016783284,0.546016478034179,0.709824219282877,-1.50946394636649,-1.25551942958483,0.144259808522922,0.767316296984203,-1.49231217534921,-0.0731945399965202,-0.385155484855432,-0.989096849752476,-0.360156931300295,-0.894305227708336,Pulses,15.9,80.47
GUNTUR,1.99940207446473,0.901052766641254,2.01899268736377,2.92250377229522,-0.463030299734301,-0.163703267677629,2.13059947029692,0.783564183936519,0.909108035211065,2.02734887313882,0.436678661379499,-0.565251749834483,1.88853421478213,1.49926517758764,1.15386805048988,2.07856446952699,-0.894305227708336,Rice,16.3067,80.4365
Y.S.R.,-0.533231070452163,-1.10896291959986,-1.2881897722181,-1.5212014050701,-1.50299806972478,-0.879733210958529,-0.938832623603654,-1.66743978801902,-0.76050443917602,-1.166960617325,-0.970558245505294,-1.49231217534921,-0.901960309898636,-1.58490545086009,-0.989096849752476,-1.56806724896068,-0.894305227708336,Millet,14.467,78.8242
Anakapalli,-0.533231070452163,-1.10896291959986,-1.58240693624332,-1.5212014050701,-1.65955413307123,-1.37303601065271,-1.39433269210843,-1.66743978801902,-1.25551942958483,-1.166960617325,-1.4178460765337,-1.64828825489156,-0.901960309898636,-1.83906548405663,-0.989096849752476,-1.71111429748972,-0.894305227708336,Millet,17.6833,82.9333
Palnadu,1.99753892748796,2.01003932004725,2.19746074660177,1.48863034952944,2.71600398414605,2.13652353783693,2.61875890464324,0.339837060304988,0.328002261473526,1.90337960501432,1.1801313348094,2.55856834504471,1.05438000615498,3.0219104353827,0.978519866060535,2.92597657638405,1.48242714990636,Millet,16.45,79.7
VIZIANAGARAM,-0.533231070452163,-1.10896291959986,-1.03288581261927,-0.661629662497564,-1.31946724162737,-1.37303601065271,-0.407601603421,-1.66743978801902,-1.25551942958483,-0.709601565148492,-0.970558245505294,-1.13939505675536,0.297717855845681,-1.41311394563204,-0.989096849752476,-1.32971041203868,-0.894305227708336,Millet,18.1167,83.4167
PRAKASAM,-0.533231070452163,0.445386898302513,-0.685195877886212,0.00454520651760279,-0.931895118386592,-0.638030787521662,0.0574227414710222,-0.909939448683404,-0.76050443917602,0.426745950347925,-0.132053229862561,-1.05559930331017,-0.901960309898636,-0.837718056590053,-0.989096849752476,-1.03549515212442,1.43444137723377,Pulses,15.5,80.05
VISAKHAPATANAM,-0.533231070452163,-0.241780874565913,-1.10029444986247,-0.661629662497564,-1.39919518931898,-0.879733210958529,-0.508685638624676,-1.50946394636649,-0.485562444779912,-0.709601565148492,-0.423141762754843,-1.64828825489156,-0.901960309898636,-1.32161421115767,-0.989096849752476,-1.63089802650996,1.159783431196,Pulses,17.6868,83.2185
KORBA,-0.533231070452163,-1.10896291959986,-1.2881897722181,-1.5212014050701,-1.31946724162737,-1.37303601065271,-1.11009944389359,-1.40506533670536,-1.25551942958483,-1.166960617325,-1.14114593758252,-1.38894238921192,-0.901960309898636,-1.58490545086009,-0.00196277702588303,-1.63089802650996,-0.894305227708336,Rice,22.35,82.7
RAIPUR,1.96887247064725,0.696767215805668,1.1663595112208,-1.23511771434438,1.00774769143291,1.5494116789383,0.672443874756732,1.06229857249238,1.62516746744705,-0.709601565148492,1.62387570973243,0.806335255958981,-0.901960309898636,1.07388905403224,0.427758543125197,1.05977149659356,-0.894305227708336,Rice,21.2514,81.6296
BALOD,-0.533231070452163,0.504258793350064,0.763990971408319,0.672873220103301,0.55238867510029,0.976728847521255,1.33281060989977,-0.166601691080123,-0.153784435716879,1.25635278161689,0.927574290767758,0.332702250493683,-0.901960309898636,0.588180256077325,1.81038887603685,0.4693141524367,0.827877621161334,Rice,20.7,81.4
JASHPUR,-0.533231070452163,-1.10896291959986,-1.44743806661197,-1.5212014050701,-1.65955413307123,-1.06592772963661,-1.39433269210843,-1.50946394636649,-1.25551942958483,-1.166960617325,-1.4178460765337,-1.49231217534921,-0.901960309898636,-1.72493139925944,-0.989096849752476,-1.71111429748972,-0.894305227708336,Millet,22.61,83.9
RAIGARH,-0.533231070452163,-0.654871054229865,-1.06516131600979,-1.5212014050701,-1.10431387009951,-0.879733210958529,-0.717652621780602,-1.20317632285254,-1.25551942958483,-1.166960617325,-0.845440685347881,-1.13939505675536,-0.901960309898636,-1.34990596937276,-0.989096849752476,-1.32971041203868,-0.894305227708336,Millet,22.3,83.4
SARANGARH BILAIGARH,-0.533231070452163,0.376833580925051,0.790844523720957,0.0477737289226488,0.872056955088085,0.546016478034179,-0.938832623603654,0.751142287229237,1.54228052647583,-0.168478175591432,1.1135574694177,0.625367698176449,-0.901960309898636,0.614293441860285,1.73101717043483,0.525303279873351,1.20864393421573,Rice,21.85,82.25
DHAMTARI,-0.533231070452163,1.48862008053855,0.376420992209117,0.244047494102941,0.753704252495078,0.953755565711764,1.1989421495388,0.335834445187791,0.0561977636458934,1.41178950269503,1.09387751687192,-0.104985091979015,-0.901960309898636,0.64197424447817,2.06654661939058,-0.394954387906444,-0.894305227708336,Rice,20.65,81.55
BALODA BAZAR,-0.533231070452163,0.47586893609506,1.28964535183953,0.453411177101756,1.47728395692576,0.133954499427521,1.57197467871994,0.629597654096198,-0.296754612369781,-1.166960617325,0.581326021119808,1.4792375595168,-0.901960309898636,1.19938245827399,0.85269086413595,1.18104179699512,-0.894305227708336,Rice,21.6667,82.2
SURGUJA,1.84343742813062,0.601395701773655,1.31760400781862,-1.23511771434438,1.61282498462682,-1.37303601065271,0.885064988140561,1.33299424301572,0.97354106144642,1.37977321262594,1.66121352703141,0.604006081297172,-0.901960309898636,1.24075494008168,2.12158142414968,-1.20257081354805,-0.894305227708336,Rice,23.3,83
DURG,1.99942033139948,1.70816627378942,-0.857407796753761,1.19755627482175,0.995152558126974,0.687502628151716,1.57424376877238,0.142398427185896,-0.485562444779912,1.70124876353816,0.863537758821979,-0.422129408905735,0.945143539438037,0.997155586731122,0.427758543125197,0.998793693029184,-0.894305227708336,Wheat,21.190449,81.28492
KABIRDHAM,-0.533231070452163,1.47873908735317,0.0377301115389645,-0.206848938578691,0.808312645078689,-1.37303601065271,1.30303579403291,-0.909939448683404,-0.153784435716879,1.11212674791129,1.06535139875861,-0.00320759993238991,-0.901960309898636,0.420914646693292,-0.989096849752476,0.425435498571361,-0.894305227708336,Wheat,22.008951,81.224342
DANTEWADA,1.99550395012577,-0.654871054229865,1.33813331945518,-0.823210083067414,1.33387514082823,1.37464777115892,1.19462017955277,1.02046923016897,1.56351106345887,1.37374766507507,1.46911062887334,0.869394659554053,0.520230551684669,1.24075494008168,-0.00196277702588303,1.2307401211195,-0.894305227708336,Rice,18.900764,81.345177
KANKER,-0.533231070452163,1.7096353142389,0.67436856397842,0.162160935313269,1.30232194918564,1.23672511358112,1.14241970362202,1.20189871994618,-0.76050443917602,1.22179334403047,1.05275584066399,1.19077457117869,-0.901960309898636,1.19938245827399,1.97142278055603,1.00501629170961,-0.894305227708336,Wheat,20.27,81.489998
SAKTI,-0.533231070452163,-1.10896291959986,-1.3574947715178,-1.5212014050701,-1.65955413307123,-0.879733210958529,-1.39433269210843,-1.66743978801902,-0.485562444779912,-0.709601565148492,-1.14114593758252,-1.64828825489156,-0.901960309898636,-1.64651390735651,0.427758543125197,-1.82842447172673,-0.894305227708336,Rice,22.033333,82.966667
GARIYABAND,-0.533231070452163,-1.10896291959986,-0.210529480137521,-1.5212014050701,-0.16080569422101,-0.34975625041402,0.534690406092762,-1.10976656356319,-1.25551942958483,-1.166960617325,0.330499492527238,-0.496019698113379,-0.901960309898636,-0.523450993054624,1.56314653263969,-0.645755115877394,-0.894305227708336,Rice,20.63479,82.061497
BEMETARA,-0.533231070452163,0.661349553478245,0.528990049389006,0.486322073203499,0.594307344964995,-0.248779229362785,1.24246102578607,-0.692373470912693,-1.25551942958483,0.939814511304077,1.23115894574512,-0.325282298781268,-0.901960309898636,0.353141834610671,-0.989096849752476,0.361478742593943,-0.894305227708336,Pulses,21.71556,81.53423
RAJNANDGAON,-0.533231070452163,0.622406757096784,0.881186408359174,0.0683241572441118,-0.280906787471967,1.7747809211308,0.8421528691612,0.560798328448451,1.54661076365289,1.35055752387533,1.06949933038396,0.336871147735539,0.297717855845681,0.733343733645563,0.427758543125197,0.733592542864282,-0.894305227708336,Rice,21.097855,81.033707
SURAJPUR,-0.533231070452163,-0.408496933848011,0.447844605611749,-1.5212014050701,0.63745582862481,-1.37303601065271,0.124101708061513,0.516235512220752,-1.25551942958483,-0.709601565148492,1.26009642802021,-0.44579848540083,-0.901960309898636,0.203844308805557,1.71562055095459,0.113284465218619,-0.894305227708336,Rice,23.223,83.1117
MAHASAMUND,-0.533231070452163,0.555737452424675,0.846028382110349,-0.348881664295838,0.962993006942652,0.650348235397776,1.03839410687863,0.641057901131372,-0.76050443917602,-0.0687409130205589,1.16587501807171,0.686703683009247,-0.901960309898636,0.691522393946602,-0.00196277702588303,0.690751283225526,-0.894305227708336,Rice,21.1106,82.0981
KOREA,-0.533231070452163,-1.10896291959986,-0.512485593579909,-1.5212014050701,-0.501322374195729,-0.549793236095494,-0.287181483722076,-0.609560560466866,-1.25551942958483,-1.166960617325,-0.529424956080109,-0.522763240647216,-0.901960309898636,-0.837718056590053,-0.989096849752476,-0.81562506463986,-0.894305227708336,Millet,23.2,82.65
SOUTH GOA,-0.533231070452163,0.47586893609506,-0.197668264936426,-1.05776775454598,-1.06423211332954,0.852338048735314,-0.717652621780602,-0.625182044738987,1.29099010575782,0.899009498805571,0.367958407820453,-1.30957075686969,-0.901960309898636,-0.420549274833108,1.56314653263969,-0.523689219908205,-0.894305227708336,Rice,15.2736,74.1086
SANGUEM,-0.533231070452163,-0.116900659325907,-1.3574947715178,-1.5212014050701,-1.65955413307123,-0.474365809529281,-0.717652621780602,-1.66743978801902,-0.485562444779912,0.0136473583888554,-1.4178460765337,-1.64828825489156,-0.901960309898636,-1.44899583600722,-0.989096849752476,-1.42998389188693,-0.894305227708336,Pulses,15.2298,74.1732
QUEPEM,-0.533231070452163,-1.10896291959986,-0.230300440693406,-1.5212014050701,-1.65955413307123,0.771529698423895,-1.39433269210843,-0.692373470912693,1.17868616128452,0.680774116980266,0.367958407820453,-1.38894238921192,-0.901960309898636,-0.54437012658811,1.27257864392301,-0.589761972457944,-0.894305227708336,Rice,15.2382,74.1015
SALCETE,-0.533231070452163,0.337900502519779,-1.3574947715178,-1.05776775454598,-1.06423211332954,-0.638030787521662,-1.39433269210843,-1.25934405839929,0.328002261473526,0.327381600450906,-1.4178460765337,-1.49231217534921,-0.901960309898636,-1.27006618928455,1.31914887477116,-1.63089802650996,-0.894305227708336,Maize,15.2417,73.9452
CANACONA,-0.533231070452163,-1.10896291959986,-1.44743806661197,-1.5212014050701,-1.65955413307123,-1.06592772963661,-1.39433269210843,-1.66743978801902,-0.76050443917602,-0.709601565148492,-1.4178460765337,-1.64828825489156,-0.901960309898636,-1.72493139925944,-0.989096849752476,-1.71111429748972,-0.894305227708336,Pulses,15.02,74.02
SHIMLA,-0.533231070452163,1.46149369775037,1.48353976490974,2.15535145478259,1.02019549398226,0.779330555787974,1.83616403046411,0.766240864803217,0.425570558322963,1.93760038095717,-1.4178460765337,-1.64828825489156,-0.901960309898636,1.62656963887692,0.85269086413595,1.5985465118647,-0.894305227708336,Rice,31.1046,77.1734
CHAMBA,-0.533231070452163,-1.10896291959986,-1.06516131600979,-0.595891707942512,-1.50299806972478,-1.37303601065271,-1.11009944389359,-1.25934405839929,-0.296754612369781,0.144259808522922,-1.4178460765337,-1.64828825489156,-0.901960309898636,-1.3802692440045,-0.989096849752476,-1.36040316209913,-0.894305227708336,Pulses,32.5667,76.1333
MANDI,-0.533231070452163,0.87035184456808,1.29082410724611,1.01226236286686,0.8885588536878,1.63043565449533,1.34128506925593,0.892594928076647,1.45593240218422,1.8261680106035,0.217648996356624,-0.985147597946429,-0.901960309898636,1.23393869167914,1.56314653263969,1.1878596959573,0.670627747097346,Rice,31.7084,76.9322
BILASPUR,-0.533231070452163,1.87300396534555,-1.06516131600979,-0.927234838002916,1.54823028114659,-0.879733210958529,-1.11009944389359,1.48671004560008,0.425570558322963,1.3757696965805,1.94031101232847,-1.30957075686969,-0.0731945399965202,1.17257033746298,-0.00196277702588303,1.16316044554685,-0.894305227708336,Wheat,31.3303,76.7566
SOLAN,-0.533231070452163,-1.10896291959986,-1.58240693624332,1.66226231700777,0.820886901648486,1.5184407702283,1.28292131766616,1.05481599865057,1.73791742716903,1.79306814228317,0.760811442339892,0.302935356896074,-0.901960309898636,1.38592957224824,1.60985536279882,1.31535842800796,0.436879376432729,Rice,30.9045,77.0967
KULLU,-0.533231070452163,1.15054488170414,0.910134753527304,1.58990036788301,0.473225962887566,0.546016478034179,1.26014959111218,0.496441406576198,1.16880138367898,1.73585175445349,-0.970558245505294,-1.09547109411444,0.785816716680774,0.865530497992355,1.35965397497241,0.852222996305748,-0.894305227708336,Rice,31.9579,77.1095
HAMIRPUR,1.99942015381691,1.83730266008468,-0.210529480137521,0.27412447132798,1.50858242473565,0.419506306445836,0.829848419654961,1.38700398189446,-0.0391779636754521,1.23159948265809,1.93011368997608,0.114200060462766,-0.0731945399965202,1.23257170945864,-0.989096849752476,1.21614424622,-0.894305227708336,Wheat,31.68,76.52
LAHUL AND SPITI,-0.533231070452163,0.247614122421515,-0.30839158102048,0.406888700464606,-0.68485450365707,-1.37303601065271,0.474319396352432,-1.03306591841219,-0.76050443917602,1.07263932727247,-1.4178460765337,-1.64828825489156,-0.901960309898636,-0.558646185361195,-0.989096849752476,-0.537861628406977,-0.894305227708336,Pulses,32.5715,77.583
SIRMAUR,-0.533231070452163,1.75953455514653,0.361391427812491,0.647881022068946,1.32292913588947,0.640692026569824,1.47993496503325,0.657989222171101,0.611285054035008,1.7697075265607,0.734128428529735,-0.92398342465035,-0.901960309898636,1.12774480730358,0.427758543125197,1.11242492735418,-0.894305227708336,Wheat,30.738,77.2865
KANGRA,-0.533231070452163,1.44317865679448,0.773666693568706,1.48863034952944,0.805778819453725,-1.37303601065271,1.27354194056569,0.482997552890601,1.34168203967484,1.75334460321578,-1.4178460765337,-1.64828825489156,-0.901960309898636,0.915959365756828,-0.989096849752476,1.14925003707007,-0.894305227708336,Pulses,32.1,76.27
KINNAUR,-0.533231070452163,0.194405327588398,-0.948898106547484,-1.5212014050701,-0.931895118386592,-0.34975625041402,-0.135427999455797,-1.32504795284993,-1.25551942958483,0.506854600387191,-1.14114593758252,-1.49231217534921,-0.901960309898636,-1.10715731569121,-0.989096849752476,-1.14041301410686,0.670627747097346,Pulses,31.5833,78.4833
RAJOURI,1.84343742813062,-1.10896291959986,-1.58240693624332,-1.23511771434438,-1.65955413307123,-1.37303601065271,-1.39433269210843,-1.50946394636649,-1.25551942958483,-0.709601565148492,-1.4178460765337,-1.64828825489156,-0.901960309898636,-1.72493139925944,-0.989096849752476,-1.71111429748972,-0.894305227708336,Pulses,33.375,74.3
UDHAMPUR,1.9984081087462,0.295092399296492,-1.23105843773986,-0.348881664295838,-1.14846434592626,-0.879733210958529,-0.56859518439078,-0.883529616125429,-1.25551942958483,0.144259808522922,-0.745988361998748,-1.05559930331017,-0.901960309898636,-1.10715731569121,-0.989096849752476,-1.08526915893599,-0.894305227708336,Wheat,32.9165,75.1326
JAMMU,1.84343742813062,0.530811104953041,-1.18206666119973,-0.736371054040746,-0.783103379309895,-1.37303601065271,-0.938832623603654,-0.748737177147017,-0.76050443917602,-0.46168182964495,-0.334598910382308,-0.985147597946429,-0.901960309898636,-1.07356875177661,-0.00196277702588303,-1.06814421948666,-0.894305227708336,Wheat,32.7266,74.857
GIRIDIH,-0.533231070452163,-0.654871054229865,-1.3574947715178,-0.927234838002916,-1.65955413307123,-1.37303601065271,-1.39433269210843,-1.32504795284993,-1.25551942958483,-0.294016373087652,-1.4178460765337,-1.64828825489156,0.297717855845681,-1.72493139925944,0.681147037548676,-1.82842447172673,-0.894305227708336,Rice,24.1847,86.3022
DHANBAD,-0.533231070452163,-1.10896291959986,-1.3574947715178,-1.23511771434438,-1.50299806972478,-1.37303601065271,-1.39433269210843,-1.40506533670536,-1.25551942958483,-1.166960617325,-1.4178460765337,-1.38894238921192,-0.0731945399965202,-1.72493139925944,-0.989096849752476,-1.63089802650996,-0.894305227708336,Millet,23.7954,86.427
GODDA,-0.533231070452163,-1.10896291959986,-1.10029444986247,-0.595891707942512,-1.65955413307123,-1.37303601065271,-1.39433269210843,-1.10976656356319,-1.25551942958483,-0.294016373087652,-0.845440685347881,-1.49231217534921,-0.901960309898636,-1.41311394563204,-0.989096849752476,-1.39363687047083,-0.894305227708336,Pulses,24.8278,87.2114
EAST SINGHBUM,-0.533231070452163,-1.10896291959986,-1.44743806661197,-1.5212014050701,-1.50299806972478,-1.37303601065271,-1.39433269210843,-1.50946394636649,-1.25551942958483,-1.166960617325,-1.4178460765337,-1.49231217534921,-0.901960309898636,-1.72493139925944,-0.00196277702588303,-1.82842447172673,-0.894305227708336,Rice,22.8056,86.2031
CHATRA,-0.533231070452163,-0.654871054229865,-1.58240693624332,-1.5212014050701,-1.50299806972478,-1.37303601065271,-1.11009944389359,-1.66743978801902,-1.25551942958483,-1.166960617325,-1.14114593758252,-1.64828825489156,-0.901960309898636,-1.72493139925944,-0.989096849752476,-1.71111429748972,-0.894305227708336,Maize,24.2045,84.877
VIDISHA,-0.533231070452163,1.45247760329304,1.84983166996517,0.418823046417407,2.21572817939,0.794641018947266,0.877505702394346,2.10786362894524,1.00279948752448,0.832725972107597,1.83468633207805,1.84809911698954,1.52325750929525,1.98988957231354,-0.00196277702588303,1.98752930227322,-0.894305227708336,Rice,23.526,77.81
CHHINDWARA,-0.533231070452163,-0.116900659325907,-1.58240693624332,-1.23511771434438,-1.39919518931898,-1.06592772963661,-0.815021678466426,-1.50946394636649,-1.25551942958483,-0.709601565148492,-0.845440685347881,-1.64828825489156,-0.901960309898636,-1.5333851104896,-0.989096849752476,-1.51564237159239,-0.894305227708336,Wheat,22.07,78.93
ANUPPUR,-0.533231070452163,-0.654871054229865,-1.23105843773986,-1.05776775454598,-1.31946724162737,-1.37303601065271,-0.938832623603654,-1.50946394636649,-0.485562444779912,-0.709601565148492,-1.4178460765337,-1.24431037839842,-0.901960309898636,-1.48869857546159,-0.00196277702588303,-1.51564237159239,-0.894305227708336,Rice,23.103,81.683
BETUL,-0.533231070452163,-0.654871054229865,-0.878598812257687,-0.736371054040746,-1.02744869619835,-0.879733210958529,-0.717652621780602,-0.999122469653718,-0.485562444779912,-0.168478175591432,-0.473608223703202,-1.24431037839842,-0.901960309898636,-1.18178481634719,-0.989096849752476,-1.16024978151971,-0.894305227708336,Millet,21.91,77.9
SHIVPURI,-0.533231070452163,1.76492932072868,1.02741611523345,2.36707507328183,0.498051688416285,-0.204582542115095,0.260576935638856,1.77341297318447,0.641593207588279,1.20474678390839,1.43284824363914,1.44911010872256,1.62903311016961,1.47956902758235,0.85269086413595,1.52435708968471,-0.894305227708336,Rice,25.43,77.66
MORENA,-0.533231070452163,1.03120491426949,0.553664836343527,1.3466410655593,0.145476148565555,-0.204582542115095,0.466268671251135,0.677364511130887,0.379012858445359,0.481855759062957,1.14020622035453,0.29859650383394,-0.901960309898636,0.465604180528322,0.427758543125197,0.44025256662931,1.28672123112405,Millet,26.5,78
SAGAR,1.99753892748796,1.49974061268814,0.705875439998227,0.697009536228746,0.978122807309405,0.998890597914168,-0.0626067953089181,0.962634102685058,1.71823370744047,1.18674084067057,1.35163919223759,0.594699946705129,1.71750349717356,0.717572657870057,1.27257864392301,0.903474968205712,-0.894305227708336,Rice,23.83,78.72
DAMOH,-0.533231070452163,1.45971233192557,0.684987754741937,1.07135609171059,0.960813736263677,-0.0251279996887787,0.649870139819685,0.950252438846746,1.23393883997133,1.35919843637087,1.30880313954914,0.294235276271178,1.34362322870143,0.818649413089521,0.427758543125197,0.839966394517269,0.827877621161334,Pulses,23.83,79.44
NEEMUCH,-0.533231070452163,1.49817772558495,1.04672370315698,0.228474427981242,1.35240311131657,1.13544957262243,1.63245514510089,0.493099398199349,-0.76050443917602,1.51820083860014,1.72743507832525,-0.0290158607697124,0.672788044970929,1.20913937901794,-0.989096849752476,1.19870089079249,0.436879376432729,Pulses,24.47,74.87
KHARGON(WEST NIMAR),-0.533231070452163,1.46677419250669,1.90458649834869,1.45182650859932,2.16784093747922,0.156605650639959,1.31371988701185,2.05457534205559,0.468364651590582,1.55188666619614,1.94787277124018,1.56659290398347,-0.901960309898636,2.09072992726511,-0.00196277702588303,2.03123795613301,1.41557740582496,Millet,21.8335,75.615
INDORE,-0.533231070452163,0.295092399296492,1.17945235010377,-0.273619216389622,1.30711020976664,0.845414034752839,1.70401634147878,-0.594352042766298,-1.25551942958483,0.872078223994275,1.4050612019194,0.924315756518108,-0.901960309898636,1.05856318856414,-0.989096849752476,1.02809932975763,1.34683504501141,Millet,22.7196,75.8577
PANNA,1.84343742813062,1.49023493209119,0.41144493405501,0.486322073203499,0.940993739019516,0.00471282040505571,0.607950917936251,0.874860021999261,-0.153784435716879,1.38955320486248,1.05697997853536,0.114200060462766,0.672788044970929,0.669054568196302,-0.00196277702588303,0.674794430855646,0.0370329773491838,Pulses,24.7209,80.1877
CHHATARPUR,-0.533231070452163,-1.10896291959986,-1.10029444986247,-1.23511771434438,-1.1977790221324,-1.06592772963661,-0.815021678466426,-1.32504795284993,-0.76050443917602,-0.709601565148492,-1.14114593758252,-1.18846281902386,-0.901960309898636,-1.41311394563204,-0.989096849752476,-1.39363687047083,-0.894305227708336,Millet,24.9164,79.5812
DEWAS,1.84343742813062,1.18677913996088,1.11925888618477,0.720349781482634,1.23139496482957,0.911402526354965,-0.135427999455797,1.38977719814741,0.793076637778198,-0.294016373087652,1.61230218085016,0.87408599433996,1.35854181429085,1.07693458017629,0.681147037548676,1.09364148405792,0.0370329773491838,Rice,22.972,76.0482
SHAHDOL,-0.533231070452163,0.504258793350064,0.391189166490539,-1.23511771434438,0.0562899383712011,1.13544957262243,1.07967131693636,-0.510557289044687,-0.76050443917602,0.862633545964977,0.598341669904753,0.196959488320762,-0.901960309898636,0.185215061054565,1.70737494957069,0.0964282840103,-0.894305227708336,Rice,23.3022,81.3568
ASHOKNAGAR,-0.533231070452163,0.972069265279706,0.197592604027563,-0.348881664295838,0.429012557466164,0.033042464527211,-0.135427999455797,0.441397978558319,-0.296754612369781,0.696058187421759,0.863537758821979,-0.104985091979015,-0.0731945399965202,0.0970239062712356,-0.989096849752476,0.113284465218619,-0.894305227708336,Millet,24.5775,77.7318
UJJAIN,-0.533231070452163,0.445386898302513,0.990812250337263,0.799931831521731,1.08424968378393,-1.06592772963661,0.424075622504174,1.11324796735491,-0.76050443917602,0.245343458041838,1.60448584054141,0.38930789968469,1.56475204644323,0.762404102227593,-0.989096849752476,0.845233529843451,-0.894305227708336,Millet,23.1793,75.7849
NARMADAPURAM,-0.533231070452163,-1.10896291959986,0.617122591325251,-0.348881664295838,0.55238867510029,0.838411600628084,1.20960671863275,-0.340676190562811,-0.296754612369781,0.530398850867753,0.93264570225892,0.381444343971235,-0.901960309898636,0.384922268521457,0.681147037548676,0.371964511148613,0.436879376432729,Rice,22.7441,77.7369
GUNA,-0.533231070452163,0.891103865511853,-0.0597126897033715,-0.661629662497564,0.0852532472806257,0.311377678332601,-1.39433269210843,0.116575699365979,0.873385561059059,0.680774116980266,0.798911645163559,-0.73485049298453,0.873931094757616,-0.19011371435083,-0.989096849752476,-0.146180584789248,-0.894305227708336,Pulses,24.65,77.32
BURHANPUR,-0.533231070452163,-0.654871054229865,-1.58240693624332,-1.5212014050701,-1.65955413307123,-1.06592772963661,-1.39433269210843,-1.50946394636649,-1.25551942958483,-0.709601565148492,-1.4178460765337,-1.64828825489156,-0.901960309898636,-1.72493139925944,-0.989096849752476,-1.71111429748972,-0.894305227708336,Pulses,21.3074,76.2304
SEHORE,1.84343742813062,1.26962526821606,0.278568258163028,-0.736371054040746,0.661261612123394,0.447063081624834,0.978192076602371,0.186861360671262,-0.76050443917602,1.32064164908131,0.691946500013517,-0.165684394117868,0.672788044970929,0.328705124917695,0.85269086413595,0.329401887771767,-0.894305227708336,Rice,23.1984,77.0952
KHANDWA (EAST NIMAR),-0.533231070452163,1.24189757180772,0.78895072123981,0.126261651581184,0.828356850782118,1.19411697252274,1.21591163447931,0.579247790870744,-1.25551942958483,1.21167509199848,1.54309506622393,-0.119686162812048,0.873931094757616,0.779532879644493,-0.989096849752476,0.789730529596084,-0.894305227708336,Pulses,21.8195,76.3666
MANDSAUR,-0.533231070452163,1.13082811064485,0.775590344152093,0.475527519930005,1.00774769143291,-0.163703267677629,0.555681196709089,0.952326462979692,-0.0391779636754521,1.23797226856624,1.06535139875861,0.478570024237346,1.39785577210088,0.671113691111904,-0.989096849752476,0.710409360505244,-0.894305227708336,Millet,24.0667,75.0667
AGAR MALWA,-0.533231070452163,-0.408496933848011,0.670087185609747,0.179386610887642,0.715550418091445,0.328105447546895,1.22214810318941,-0.510557289044687,1.03037645905488,-1.166960617325,-0.161084856420121,0.835931846712309,-0.0731945399965202,0.453361143218802,-0.989096849752476,0.452452573763518,0.827877621161334,Millet,23.7103,76.0102
Niwari,-0.533231070452163,-0.241780874565913,-1.03288581261927,-0.595891707942512,-1.1977790221324,-1.37303601065271,-0.938832623603654,-0.999122469653718,-1.25551942958483,-1.166960617325,-0.423141762754843,-1.30957075686969,0.297717855845681,-1.32161421115767,-0.989096849752476,-1.24913579183694,-0.894305227708336,Millet,25.3489,78.8009
BALAGHAT,-0.533231070452163,1.39401453834457,-0.45218033658109,-0.435310661734841,0.458728354155366,-1.06592772963661,1.03265541391601,-0.858453888943854,-1.25551942958483,1.33481541998564,0.0978077901309622,-0.660788082465679,-0.901960309898636,0.0623398485062145,-0.989096849752476,0.0758127509892219,-0.894305227708336,Wheat,21.8174,80.184
BARWANI,-0.533231070452163,1.33800729813519,1.34714107450102,0.576514532035657,1.66716017013656,0.239176717989176,0.730087448785089,1.59735486206855,-0.296754612369781,1.33481541998564,1.88929109045427,0.640334717693753,1.70529892001796,1.28233975221513,-0.00196277702588303,1.39301865839929,-0.894305227708336,Rice,22.0333,74.9
SHAJAPUR,-0.533231070452163,1.37329999369239,0.913486730819567,1.67335785440292,0.698732497529633,-0.204582542115095,-0.0405112336976569,1.13783931158487,1.53790660319608,1.21845618630274,1.16226518772557,0.852801854349553,1.56921942067955,0.898781487059599,-0.00196277702588303,0.911824455513149,1.60159305728887,Millet,23.43,76.27
RAJGARH,-0.533231070452163,1.586517650707,0.560937674823703,1.2774831038782,0.825873002523693,0.650348235397776,-0.0857210273779843,1.11856517442653,1.34848108365886,0.890255262491896,1.51260963537468,0.553261593124636,1.82604485729469,0.292435114928138,1.94811656864429,0.672785065664004,1.48242714990636,Rice,23.8667,76.7333
MAUGANJ,-0.533231070452163,-0.0176528127910957,-0.461807325588444,-0.661629662497564,-0.392794985776915,-1.37303601065271,-0.815021678466426,-0.381707116917112,-0.76050443917602,-0.168478175591432,-0.423141762754843,-0.470399009945503,-0.901960309898636,-0.737679645383005,-0.989096849752476,-0.725200425888306,-0.894305227708336,Millet,24.667,81.8736
REWA,-0.533231070452163,1.03120491426949,0.15964844922255,-1.5212014050701,0.525621007733797,-1.06592772963661,0.505357806075017,0.251492289097322,-1.25551942958483,0.983254461422157,0.93264570225892,-0.536592757982173,-0.901960309898636,0.0936083421275775,-0.989096849752476,0.106576407602721,-0.894305227708336,Pulses,24.53,81.3
DINDORI,-0.533231070452163,1.23825680094085,-0.643245237084175,-1.23511771434438,0.118663434470365,-0.0566570003608431,0.272436569247521,-0.0597175851525045,-0.485562444779912,1.21167509199848,-0.161084856420121,-1.09547109411444,-0.901960309898636,-0.232501314890089,-0.00196277702588303,-0.224463082972076,-0.894305227708336,Wheat,22.95,81.08
BHOPAL,-0.533231070452163,-1.10896291959986,-1.44743806661197,-1.5212014050701,-1.65955413307123,-1.06592772963661,-1.39433269210843,-1.50946394636649,-1.25551942958483,-1.166960617325,-1.4178460765337,-1.49231217534921,-0.901960309898636,-1.72493139925944,-0.989096849752476,-1.71111429748972,-0.894305227708336,Millet,23.2599,77.4126
SHEOPUR,-0.533231070452163,-0.654871054229865,-0.763780507160473,-0.176061130035769,-1.31946724162737,-0.879733210958529,-1.39433269210843,-1.25934405839929,0.641593207588279,0.0836104630673078,-0.473608223703202,-1.09547109411444,0.297717855845681,-1.10715731569121,1.15386805048988,-1.24913579183694,0.670627747097346,Rice,25.675,76.6967
JHABUA,-0.533231070452163,1.40061717353712,0.594129362071113,1.11281355627754,0.737533562631641,0.258089818535781,0.644076814855747,0.861349853805541,0.891572562615488,1.43246601608937,1.05697997853536,0.103224735141653,1.86373280046554,-1.83906548405663,-0.00196277702588303,0.714303553951916,-0.894305227708336,Rice,22.767,74.59
JABALPUR,-0.533231070452163,0.920166653676621,-0.747048118139849,-0.927234838002916,-0.339589553987985,-0.125664083444282,-1.11009944389359,-0.311514413424893,0.379012858445359,0.455223772751396,0.330499492527238,-1.09547109411444,0.297717855845681,-0.626539781343263,-0.989096849752476,-0.589761972457944,-0.894305227708336,Wheat,23.1815,79.9864
HARDA,-0.533231070452163,-1.10896291959986,-0.136803195626291,-0.310047781648342,-0.107604357629375,-1.37303601065271,-1.39433269210843,-0.0336871284909221,-1.25551942958483,-0.709601565148492,0.545870230672667,-0.627145922619855,0.785816716680774,-0.476756912188263,-0.989096849752476,-0.425171580438193,-0.894305227708336,Millet,22.3384,77.0933
UMARIA,-0.533231070452163,0.247614122421515,-0.670834688047941,-0.595891707942512,-0.761980240109165,-0.248779229362785,-0.135427999455797,-0.768915985357345,-1.25551942958483,0.288309910674276,-0.161084856420121,-1.01901210009855,-0.901960309898636,-0.882589412247202,-0.989096849752476,-0.860422895161421,-0.894305227708336,Pulses,23.5247,80.8365
RATLAM,-0.533231070452163,-1.10896291959986,-0.178827906890162,-0.310047781648342,-0.16080569422101,-1.37303601065271,-1.39433269210843,-0.0798647396896698,-1.25551942958483,-1.166960617325,0.447428087617572,-0.565251749834483,0.520230551684669,-0.509818143744747,-0.989096849752476,-0.469558347000059,-0.894305227708336,Millet,23.3342,75.0376
SEONI,-0.533231070452163,0.412502632144467,-0.415164667025824,0.212520408296362,-0.601316211437315,-1.37303601065271,0.415218335897732,-1.069757616982,-0.76050443917602,0.530398850867753,0.116484483000542,-0.844632143791568,-0.901960309898636,-0.634490805647371,-0.989096849752476,-0.613213050966988,-0.894305227708336,Pulses,22.0869,79.5435
MANDLA,-0.533231070452163,0.412502632144467,-0.424205391365274,0.212520408296362,-0.617081856435634,-1.37303601065271,0.387719208416475,-0.999122469653718,-1.25551942958483,0.426745950347925,-0.132053229862561,-0.565251749834483,-0.901960309898636,-0.634490805647371,1.57984770054579,-0.794389226442766,-0.894305227708336,Rice,22.6,80.383
NARSINGHPUR,-0.533231070452163,-1.10896291959986,-1.44743806661197,-1.5212014050701,-1.65955413307123,-1.06592772963661,-1.11009944389359,-1.66743978801902,-1.25551942958483,-1.166960617325,-1.4178460765337,-1.49231217534921,-0.901960309898636,-1.72493139925944,-0.989096849752476,-1.71111429748972,-0.894305227708336,Millet,22.95,79.2
SINGRAULI,-0.533231070452163,-1.10896291959986,-0.900823515961597,-0.823210083067414,-0.993399630713611,-1.37303601065271,-1.39433269210843,-0.909939448683404,-0.76050443917602,-1.166960617325,-0.663136199686886,-1.01901210009855,-0.901960309898636,-1.22384394251679,-0.989096849752476,-1.24913579183694,-0.894305227708336,Millet,24.1997,82.6753
ALIRAJPUR,-0.533231070452163,0.799995904010244,-0.62997285917929,-0.206848938578691,-0.370991373965888,-1.37303601065271,-0.938832623603654,-0.256775303589761,-0.76050443917602,0.832725972107597,-0.028861024895125,-1.38894238921192,1.32761311106132,-0.806051936491959,-0.00196277702588303,-0.621207056123413,-0.894305227708336,Wheat,22.3053,74.3525
SATNA,-0.533231070452163,-0.654871054229865,-1.23105843773986,-1.5212014050701,-1.25389946122146,-1.06592772963661,-0.717652621780602,-1.50946394636649,-1.25551942958483,-0.709601565148492,-1.14114593758252,-1.30957075686969,-0.901960309898636,-1.48869857546159,-0.989096849752476,-1.47025219683674,-0.894305227708336,Millet,24.5797,80.8322
KATNI,-0.533231070452163,-1.10896291959986,-1.44743806661197,-1.5212014050701,-1.50299806972478,-1.37303601065271,-1.11009944389359,-1.66743978801902,-1.25551942958483,-1.166960617325,-1.14114593758252,-1.64828825489156,-0.901960309898636,-1.72493139925944,-0.989096849752476,-1.71111429748972,-0.894305227708336,Millet,23.8337,80.4206
DATIA,-0.533231070452163,0.295092399296492,-0.699967921177156,-0.595891707942512,-0.828062560584788,-0.163703267677629,-0.109955512107797,-0.937857779652273,-0.0391779636754521,0.61274873928072,-0.473608223703202,-1.24431037839842,-0.901960309898636,-0.894337888929934,-0.989096849752476,-0.88412990255746,0.0370329773491838,Pulses,25.6725,78.4584
SOLAPUR,-0.533231070452163,-0.654871054229865,-1.18206666119973,-0.736371054040746,-1.50299806972478,-1.37303601065271,-1.39433269210843,-1.50946394636649,-0.0391779636754521,-0.294016373087652,-1.14114593758252,-1.38894238921192,0.520230551684669,-1.58490545086009,-0.989096849752476,-1.42998389188693,-0.894305227708336,Pulses,17.6599,75.9064
SATARA,-0.533231070452163,-0.654871054229865,-1.03288581261927,-0.537129734938117,-1.39919518931898,-1.37303601065271,-0.508685638624676,-1.50946394636649,-0.485562444779912,-1.166960617325,-1.14114593758252,-1.01901210009855,-0.901960309898636,-1.32161421115767,-0.989096849752476,-1.39363687047083,0.670627747097346,Millet,17.6805,73.9955
PUNE,-0.533231070452163,-0.654871054229865,-1.3574947715178,-1.05776775454598,-1.65955413307123,-1.06592772963661,-1.39433269210843,-1.66743978801902,-0.296754612369781,-0.709601565148492,-1.4178460765337,-1.38894238921192,-0.901960309898636,-1.58490545086009,-0.989096849752476,-1.56806724896068,-0.894305227708336,Millet,18.5204,73.8567
SINDHUDURG,-0.533231070452163,-0.654871054229865,-1.44743806661197,-1.5212014050701,-1.65955413307123,-0.879733210958529,-0.938832623603654,-1.66743978801902,-1.25551942958483,-0.46168182964495,-1.4178460765337,-1.64828825489156,-0.901960309898636,-1.64651390735651,-0.00196277702588303,-1.71111429748972,-0.894305227708336,Rice,16.1667,73.6667
CHANDRAPUR,-0.533231070452163,0.679461015175716,-1.23105843773986,-1.23511771434438,-1.31946724162737,0.178391206852863,-0.252857090519949,-1.03306591841219,0.0561977636458934,0.396166296506782,-0.745988361998748,-0.985147597946429,-0.901960309898636,-0.983795565276502,-0.989096849752476,-0.961616276353002,-0.894305227708336,Pulses,19.95,79.3
AHMEDNAGAR,-0.533231070452163,-0.654871054229865,-1.06516131600979,-1.05776775454598,-1.31946724162737,-0.638030787521662,-0.637220415101301,-1.40506533670536,-0.485562444779912,-0.294016373087652,-0.970558245505294,-1.24431037839842,-0.901960309898636,-1.34990596937276,-0.989096849752476,-1.32971041203868,-0.894305227708336,Millet,19.0952,74.7496
NASHIK,-0.533231070452163,-0.654871054229865,-1.3574947715178,-1.05776775454598,-1.50299806972478,-1.37303601065271,-1.39433269210843,-1.66743978801902,-0.296754612369781,-0.46168182964495,-1.4178460765337,-1.49231217534921,-0.901960309898636,-1.58490545086009,-0.989096849752476,-1.63089802650996,0.0370329773491838,Pulses,19.9975,73.7898
WARDHA,-0.533231070452163,0.194405327588398,-1.06516131600979,-0.823210083067414,-1.31946724162737,-0.296904020819223,-0.508685638624676,-1.40506533670536,0.137704759628641,0.197682362746914,-0.745988361998748,-1.30957075686969,-0.0731945399965202,-1.20235071491745,-0.989096849752476,-1.16024978151971,-0.894305227708336,Pulses,20.75,78.6
BULDHANA,-0.533231070452163,-0.654871054229865,-1.44743806661197,-1.5212014050701,-1.50299806972478,-1.37303601065271,-1.11009944389359,-1.66743978801902,-1.25551942958483,-1.166960617325,-1.14114593758252,-1.49231217534921,-0.901960309898636,-1.64651390735651,-0.989096849752476,-1.63089802650996,-0.894305227708336,Millet,20.5333,76.1833
YAVATMAL,-0.533231070452163,-0.654871054229865,-1.58240693624332,-1.5212014050701,-1.65955413307123,-1.06592772963661,-1.39433269210843,-1.66743978801902,-0.76050443917602,-0.709601565148492,-1.4178460765337,-1.64828825489156,-0.901960309898636,-1.72493139925944,-0.989096849752476,-1.71111429748972,-0.894305227708336,Pulses,20.388794,78.120407
AMRAVATI,-0.533231070452163,-0.408496933848011,-1.58240693624332,-1.5212014050701,-1.65955413307123,-0.879733210958529,-0.938832623603654,-1.66743978801902,-1.25551942958483,-0.709601565148492,-1.14114593758252,-1.64828825489156,-0.901960309898636,-1.64651390735651,-0.989096849752476,-1.63089802650996,-0.894305227708336,Pulses,20.937424,77.779549
SANGLI,-0.533231070452163,-1.10896291959986,-1.44743806661197,-1.5212014050701,-1.50299806972478,-1.37303601065271,-1.39433269210843,-1.50946394636649,-1.25551942958483,-1.166960617325,-1.14114593758252,-1.64828825489156,-0.901960309898636,-1.72493139925944,-0.989096849752476,-1.71111429748972,-0.894305227708336,Millet,16.867634,74.570389
FEROZEPUR,-0.533231070452163,-1.10896291959986,-1.18206666119973,-1.5212014050701,0.107681941465364,0.885842585310103,0.527506679349576,-0.0147479325115236,1.01678649941633,0.144259808522922,0.598341669904753,0.171999144608479,-0.901960309898636,0.0552577575797372,-0.989096849752476,-0.173016912272155,1.72496932271985,Millet,30.923433,74.610214
BUNDI,-0.533231070452163,-0.116900659325907,-1.18206666119973,-1.23511771434438,-1.10431387009951,-1.06592772963661,-1.11009944389359,-1.069757616982,-1.25551942958483,-1.166960617325,-0.591947363089176,-1.30957075686969,-0.901960309898636,-1.34990596937276,-0.00196277702588303,-1.36040316209913,-0.894305227708336,Rice,25.430513,75.649902
CHURU,-0.533231070452163,-1.10896291959986,-1.58240693624332,-1.5212014050701,1.02225608017486,2.35875306359342,1.37717331409715,1.78144442191137,-0.296754612369781,-1.166960617325,0.654578168438481,2.08359802837777,1.67351629636122,1.77725867861643,-0.989096849752476,1.78323326899717,1.68004160720092,Millet,28.29229,74.966583
JAISALMER,-0.533231070452163,-1.10896291959986,-1.58240693624332,1.24423649145795,-0.931895118386592,-1.37303601065271,0.555681196709089,0.152495725940581,-1.25551942958483,-1.166960617325,-1.14114593758252,0.471464243906775,-0.901960309898636,0.0445399208557685,-0.00196277702588303,-0.734642374827965,1.83698335873668,Millet,26.911661,70.922928
BARMER,-0.533231070452163,-1.10896291959986,-1.58240693624332,-0.927234838002916,-1.65955413307123,-1.37303601065271,-1.39433269210843,-1.32504795284993,-1.25551942958483,-1.166960617325,-1.4178460765337,-1.30957075686969,-0.901960309898636,-1.58490545086009,-0.989096849752476,-1.63089802650996,0.0370329773491838,Millet,25.753155,71.41806
TONK,-0.533231070452163,-1.10896291959986,-1.58240693624332,1.17723660418311,-1.31946724162737,-1.06592772963661,0.677943694709187,-0.121919324925327,-1.25551942958483,-0.46168182964495,0.152153294553344,0.235374639112537,1.54015446282019,-0.25201154649836,-0.989096849752476,-0.300017961697329,1.70786323984359,Millet,26.1667,75.7833
SIKAR,-0.533231070452163,-1.10896291959986,-1.58240693624332,0.712654723185367,-0.961658649878566,-1.37303601065271,0.666887824481617,-1.40506533670536,-1.25551942958483,-1.166960617325,-1.4178460765337,0.00310883857176898,-0.901960309898636,-0.432700689949136,-0.989096849752476,-0.41903397897493,-0.894305227708336,Millet,27.6119,75.1399
DAUSA,-0.533231070452163,-1.10896291959986,-1.58240693624332,-0.0664835828336772,-1.25389946122146,-1.06592772963661,-0.407601603421,-0.811748712024778,-1.25551942958483,-1.166960617325,-1.4178460765337,-0.627145922619855,-0.0731945399965202,-1.02685189014002,-0.989096849752476,-0.989984550088277,-0.894305227708336,Millet,26.8897,76.329
SAWAI MADHOPUR,-0.533231070452163,-1.10896291959986,-1.58240693624332,2.14780948307991,-0.262424706227831,-0.744605456211857,1.52835306683754,0.535603129788936,0.0561977636458934,-0.709601565148492,-0.0781204865661908,1.45188071282797,1.73170162582075,0.909114233358171,-0.989096849752476,1.08488566122339,1.25044539303051,Millet,26.037,76.356
RAJSAMAND,-0.533231070452163,-1.10896291959986,-1.44743806661197,1.22898864276039,1.04062495160966,-0.638030787521662,1.66152429769511,-1.03306591841219,-0.296754612369781,-0.709601565148492,1.35990859277327,0.913114122168072,1.67155417687376,0.816812837577026,-0.989096849752476,0.822251374146225,1.76017795260304,Millet,25.0715,73.8798
AJMER,-0.533231070452163,-1.10896291959986,-1.58240693624332,1.03248328358829,-0.68485450365707,-1.37303601065271,-0.815021678466426,0.294727686481332,-1.25551942958483,-1.166960617325,-1.4178460765337,0.328512946366192,1.34362322870143,-0.194725392599844,-0.989096849752476,-0.310628415825951,1.68004160720092,Millet,26.4499,74.6399
Kotputli-Behror,-0.533231070452163,-1.10896291959986,-1.44743806661197,0.244047494102941,-1.65955413307123,-1.37303601065271,-1.39433269210843,-0.48504521884806,-0.76050443917602,-1.166960617325,-1.4178460765337,-0.470399009945503,-0.901960309898636,-0.882589412247202,-0.989096849752476,-0.87215886155414,-0.894305227708336,Millet,27.7053,76.1997
JODHPUR,-0.533231070452163,-1.10896291959986,-1.58240693624332,0.356911306677489,-1.39919518931898,-1.37303601065271,-0.109955512107797,-0.594352042766298,-1.25551942958483,-1.166960617325,-1.4178460765337,-0.355985078032781,0.785816716680774,-0.816433327883603,-0.989096849752476,-0.860422895161421,1.28672123112405,Millet,26.2389,73.0243
BARAN,-0.533231070452163,-1.10896291959986,-1.58240693624332,1.6186760583468,-0.585964122879927,-1.06592772963661,1.36275787252423,-1.66743978801902,-1.25551942958483,0.363173074384061,0.957447970395904,0.496092851622315,0.785816716680774,0.448427848237932,-0.989096849752476,0.462118487007143,-0.894305227708336,Millet,25.1011,76.5132
JAIPUR,-0.533231070452163,-1.10896291959986,-1.58240693624332,1.53434275709909,0.145476148565555,0.033042464527211,0.924898726796609,0.652379354046856,-0.485562444779912,-1.166960617325,-0.258520477743248,1.00982758925102,1.13531246295751,0.601306065093218,-0.989096849752476,0.488282897444242,1.73011018452149,Millet,26.9124,75.7873
SIROHI,-0.533231070452163,-1.10896291959986,-1.58240693624332,-0.348881664295838,-1.10431387009951,-1.37303601065271,-0.45548177532127,-0.96749748309907,-1.25551942958483,-1.166960617325,-0.845440685347881,-0.820744926085478,0.520230551684669,-1.18178481634719,-0.989096849752476,-1.10298653054785,-0.894305227708336,Millet,24.8887,72.8479
BHILWARA,-0.533231070452163,-1.10896291959986,-1.58240693624332,1.911391256937,0.230545408028147,-0.0251279996887787,1.25431349398897,0.833767464045303,-0.76050443917602,1.5384360141218,1.08179577746492,0.420073819120189,1.81180782671953,0.518014095729148,-0.989096849752476,0.888310313370434,1.72230102687416,Pulses,25.3463,74.6359
CHITTORGARH,-0.533231070452163,-1.10896291959986,-1.58240693624332,0.330447614595472,-0.271603272551497,-0.744605456211857,0.512843215730953,-0.510557289044687,-1.25551942958483,0.664855742044932,-0.028861024895125,-0.277074862964956,-0.0731945399965202,-0.373690909725365,-0.989096849752476,-0.360156931300295,0.436879376432729,Millet,24.8887,74.6269
BANSWARA,-0.533231070452163,-1.10896291959986,-1.58240693624332,1.37587518693702,0.476814326771048,-0.248779229362785,1.10306672991441,0.525971316836953,-1.25551942958483,1.36759838664866,0.817168968823394,0.336871147735539,0.873931094757616,0.631400598118027,0.427758543125197,0.580882136354969,1.52079789700392,Pulses,23.5461,74.435
KARAULI,-0.533231070452163,-1.10896291959986,-1.58240693624332,1.01226236286686,-1.50299806972478,-1.06592772963661,0.749626416485946,-0.692373470912693,-0.76050443917602,-1.166960617325,0.436678661379499,-0.0764451365862453,-0.901960309898636,-0.218146771013783,-0.989096849752476,-0.200699571772663,-0.894305227708336,Millet,26.5015,77.0151
DHOLPUR,-0.533231070452163,-1.10896291959986,-1.58240693624332,-1.23511771434438,-1.65955413307123,-1.37303601065271,-1.11009944389359,-1.66743978801902,-1.25551942958483,-1.166960617325,-1.14114593758252,-1.64828825489156,-0.901960309898636,-1.72493139925944,-0.989096849752476,-1.71111429748972,-0.894305227708336,Millet,26.7025,77.8797
BHARATPUR,-0.533231070452163,-1.10896291959986,-0.0493564684342465,-0.239300684944327,-0.00508780388822145,-1.37303601065271,-1.39433269210843,0.0508742278311962,-0.296754612369781,-1.166960617325,-1.4178460765337,0.0750967749007373,1.19840541972243,-0.432700689949136,-0.989096849752476,-0.337770763621123,-0.894305227708336,Millet,27.2173,77.4895
DUNGARPUR,-0.533231070452163,-1.10896291959986,-1.44743806661197,-0.239300684944327,-1.25389946122146,-1.37303601065271,-0.815021678466426,-0.83456746872446,-1.25551942958483,-1.166960617325,-0.377048229460992,-1.01901210009855,-0.901960309898636,-1.12480370660844,-0.989096849752476,-1.10298653054785,-0.894305227708336,Millet,23.8431,73.7137
Deeg,1.84343742813062,-0.654871054229865,0.230255459910453,0.00454520651760279,0.298996504174568,-1.37303601065271,-0.938832623603654,0.343820877168165,0.0561977636458934,-1.166960617325,-1.14114593758252,0.393213250470782,1.45878209000882,-0.162927293452678,-0.989096849752476,-0.0228140756683906,-0.894305227708336,Millet,27.4719,77.326
KOTA,-0.533231070452163,-1.10896291959986,-1.58240693624332,0.10752852930879,1.37815770755172,0.589945833899985,0.888806402843346,1.23892369071646,-0.485562444779912,-1.166960617325,1.09785840169497,1.24667151512962,1.82243528914222,0.616444792272961,1.27257864392301,1.06868772552799,1.159783431196,Rice,25.2138,75.8648
Beawar,-0.533231070452163,-1.10896291959986,-1.58240693624332,-1.05776775454598,-1.65955413307123,-1.37303601065271,-1.39433269210843,-1.40506533670536,-1.25551942958483,-0.46168182964495,-1.4178460765337,-1.64828825489156,-0.0731945399965202,-1.72493139925944,-0.989096849752476,-1.63089802650996,-0.894305227708336,Pulses,26.1013,74.3203
BIKANER,-0.533231070452163,-1.10896291959986,-1.58240693624332,-1.05776775454598,-1.50299806972478,-1.37303601065271,-0.938832623603654,-1.50946394636649,-1.25551942958483,-1.166960617325,-1.4178460765337,-1.30957075686969,0.520230551684669,-1.83906548405663,-0.989096849752476,-1.71111429748972,0.436879376432729,Millet,28.0229,73.3119
Salumbar,-0.533231070452163,-1.10896291959986,-1.58240693624332,-1.5212014050701,-0.193074089515617,0.390595542266003,-0.815021678466426,0.0217499051278459,-1.25551942958483,-1.166960617325,-0.591947363089176,0.0155861390582103,-0.901960309898636,-0.373690909725365,-0.989096849752476,-0.360156931300295,0.0370329773491838,Millet,24.1362,74.0548
NAGAUR,-0.533231070452163,-1.10896291959986,-1.58240693624332,-1.5212014050701,-1.50299806972478,-1.37303601065271,-1.11009944389359,-1.66743978801902,-1.25551942958483,-1.166960617325,-1.4178460765337,-1.49231217534921,-0.901960309898636,-1.72493139925944,-0.989096849752476,-1.82842447172673,0.0370329773491838,Millet,27.202,73.74
JHUNJHUNU,-0.533231070452163,-1.10896291959986,-1.58240693624332,0.681010666341195,-0.761980240109165,-1.37303601065271,0.000965818107616008,-0.182147617488465,-0.0391779636754521,-1.166960617325,-1.4178460765337,0.0278623929573723,-0.901960309898636,-0.402659403512598,0.427758543125197,-0.523689219908205,1.48242714990636,Millet,28.1289,75.3992
ALWAR,-0.533231070452163,-1.10896291959986,-1.58240693624332,0.50741260663293,-0.761980240109165,-1.37303601065271,0.387719208416475,-0.674804411899809,-0.76050443917602,-1.166960617325,-1.14114593758252,-0.104985091979015,0.785816716680774,-0.558646185361195,-0.989096849752476,-0.523689219908205,0.670627747097346,Millet,27.553,76.6346
THE NILGIRIS,-0.533231070452163,1.06363604857873,-0.14854862977185,1.10379550587914,-1.50299806972478,-1.37303601065271,0.83808174028048,-0.789894366939199,-0.153784435716879,1.20822971364872,-0.00573256515955282,-0.678394033910517,-0.901960309898636,-0.140875694061187,1.87249215300413,-0.463057702005842,-0.894305227708336,Rice,11.4064,76.6932
TIRUCHIRAPPALLI,-0.533231070452163,-1.10896291959986,0.911812123139864,1.19755627482175,-0.617081856435634,1.54239120407139,1.02099979275385,0.714964963743097,-1.25551942958483,-1.166960617325,-1.4178460765337,1.13557055381819,0.785816716680774,0.721533640771071,0.681147037548676,0.168554840999493,1.87705215230477,Millet,10.7905,78.7047
THANJAVUR,-0.533231070452163,-0.241780874565913,1.4061778562662,-0.435310661734841,0.22098150796227,2.1656562450444,1.32247538106781,1.04538742603258,1.47664585666077,1.1346153059126,1.41274535282759,1.19770094659855,1.50437081422564,1.27570952168438,-0.989096849752476,1.30661240772552,0.0370329773491838,Millet,10.7867,79.1391
KALLAKURICHI,-0.533231070452163,-1.10896291959986,0.533979415856159,0.980862629786911,-0.319453016783284,0.959578341756499,0.82149053053439,0.152495725940581,0.891572562615488,-0.709601565148492,0.457995671816941,0.562990161497257,0.873931094757616,0.278161945819741,-0.989096849752476,0.273719876272936,1.20864393421573,Millet,11.7383,78.9626
Tirupathur,-0.533231070452163,-0.408496933848011,-0.210529480137521,-0.273619216389622,-0.349891480346814,0.00471282040505571,0.0574227414710222,-0.403248540559464,0.271644935069558,-1.166960617325,-1.4178460765337,-0.0834763664957729,-0.901960309898636,-0.509818143744747,-0.989096849752476,-0.496134430099596,0.0370329773491838,Millet,12.4964,78.5702
TUTICORIN,-0.533231070452163,-1.10896291959986,0.67650198096407,-0.661629662497564,0.362359183255704,1.25883193780564,1.35787241854462,-1.66743978801902,-1.25551942958483,-1.166960617325,-1.14114593758252,0.876423562801019,-0.901960309898636,0.458273716610846,-0.989096849752476,0.425435498571361,1.41557740582496,Millet,8.7642,78.1348
KANNIYAKUMARI,-0.533231070452163,0.622406757096784,0.546333060944679,1.04239214325299,0.0795453159090551,0.669210149872853,0.327997380771167,0.615071124515622,0.271644935069558,-0.709601565148492,0.262466010921988,0.678179218685496,-0.901960309898636,0.358500875408829,1.65934094156253,0.285091388879185,-0.894305227708336,Rice,8.0883,77.5385
TIRUPPUR,-0.533231070452163,-1.10896291959986,0.447844605611749,-0.537129734938117,0.429012557466164,0.589945833899985,1.17250730727488,-1.50946394636649,-0.76050443917602,-1.166960617325,-1.4178460765337,0.628380140731325,-0.901960309898636,0.197670807871751,-0.989096849752476,0.199710005532746,0.670627747097346,Millet,11.1085,77.3411
VIRUDHUNAGAR,-0.533231070452163,-1.10896291959986,0.987703272303059,-0.927234838002916,0.235286464618668,1.75447398340731,1.54879424091358,-0.565079433151015,-0.296754612369781,0.738540429337206,0.740901575625979,0.997437738422584,-0.901960309898636,0.820483441448589,-0.989096849752476,0.712357994743716,1.71387045969948,Millet,9.5851,77.9576
MADURAI,-0.533231070452163,-1.10896291959986,0.336772806491844,0.343810916485033,0.186609693257551,0.360185408494854,0.804385094514745,-0.0798647396896698,-0.485562444779912,0.664855742044932,0.699168957172124,0.0278623929573723,0.672788044970929,0.0552577575797372,0.427758543125197,0.0688433491152696,0.0370329773491838,Rice,9.9252,78.1198
CUDDALORE,-0.533231070452163,-1.10896291959986,0.678630583574987,1.39165945321614,0.0795453159090551,-0.34975625041402,0.000965818107616008,0.63534536997548,1.28326316199433,-1.166960617325,-1.4178460765337,0.881082643783516,-0.901960309898636,0.46316577765825,-0.00196277702588303,0.466920666150895,-0.894305227708336,Rice,11.7447,79.768
THENI,-0.533231070452163,-1.10896291959986,-0.512485593579909,-0.537129734938117,-0.542158523022426,-1.37303601065271,-0.019346086546279,-0.789894366939199,-1.25551942958483,-1.166960617325,-1.4178460765337,-0.44579848540083,-0.901960309898636,-0.848635917762362,-0.989096849752476,-0.837613801961921,-0.894305227708336,Millet,10.0153,77.482
Ariyalur,-0.533231070452163,-1.10896291959986,0.596454715296367,0.0477737289226488,0.729347516982047,-1.37303601065271,-1.39433269210843,0.763740713969409,-0.76050443917602,-1.166960617325,-0.591947363089176,0.77324732974718,-0.901960309898636,0.363834618037886,-0.00196277702588303,0.361478742593943,-0.894305227708336,Rice,11.139,79.0756
PERAMBALUR,-0.533231070452163,-1.10896291959986,0.968851503562577,0.162160935313269,0.805778819453725,1.23672511358112,1.25626542802792,0.51296668752142,-0.0391779636754521,-0.709601565148492,0.890964831272298,0.982796120533343,-0.901960309898636,0.798305080200418,-0.989096849752476,0.789730529596084,0.827877621161334,Millet,11.2333,78.8833
THIRUVARUR,-0.533231070452163,-1.10896291959986,0.490654410681577,1.44308682798496,-0.852089359592529,-1.37303601065271,1.19678523676563,-1.10976656356319,-1.25551942958483,-1.166960617325,-0.224104434950264,0.634376329460859,-0.901960309898636,0.246089543797912,-0.989096849752476,0.256429715775271,-0.894305227708336,Millet,10.7716,79.6366
SIVAGANGA,-0.533231070452163,-1.10896291959986,0.75421782928074,-1.5212014050701,0.843133263622722,0.620903564842126,1.16570332693762,0.233543341784868,-1.25551942958483,-1.166960617325,-1.4178460765337,0.961518069220084,-0.0731945399965202,0.54109605612775,-0.00196277702588303,0.425435498571361,1.69478526297065,Millet,9.8472,78.4814
SALEM,-0.533231070452163,-0.654871054229865,0.34608951472421,0.672873220103301,0.196577343494652,-0.638030787521662,0.582450267198937,0.172313702708221,-0.153784435716879,-1.166960617325,-1.4178460765337,0.520068346361901,-0.901960309898636,0.0867426606425383,0.427758543125197,0.0861746231762748,0.0370329773491838,Rice,11.6643,78.146
NAMAKKAL,-0.533231070452163,-0.654871054229865,0.707939182870658,1.3597683531743,-0.0179750668890536,0.546016478034179,1.36275787252423,-0.909939448683404,-0.76050443917602,0.0136473583888554,0.0585710059297451,0.843196475300123,-0.901960309898636,0.496852753846178,-0.00196277702588303,0.282259930065951,1.77061743039791,Millet,11.228,78.1652
ERODE,-0.533231070452163,-0.116900659325907,1.25734601802785,0.0477737289226488,1.26987992906813,1.19411697252274,1.70946178636899,-0.114737486646982,-0.485562444779912,-0.294016373087652,1.12127600011283,1.27280370134783,0.672788044970929,1.1379877235735,1.72349221525957,1.07607402008112,1.10166593502118,Rice,11.341,77.7172
KARUR,-0.533231070452163,-1.10896291959986,1.00621964149741,0.0683241572441118,0.867292913291702,1.25154667166992,1.51097285087131,-0.166601691080123,0.208753597752566,-1.166960617325,0.16921384045475,1.18555128073327,-0.901960309898636,0.84049204795301,-0.989096849752476,0.648409643971313,1.7935471896769,Millet,10.9601,78.0766
COIMBATORE,-0.533231070452163,-1.10896291959986,-0.556536308088328,-1.23511771434438,-0.571001483776558,-0.549793236095494,0.210228199175528,-1.66743978801902,-1.25551942958483,-1.166960617325,-0.970558245505294,-0.509244067493562,-0.901960309898636,-0.882589412247202,-0.00196277702588303,-0.908824675832711,0.670627747097346,Millet,11.0168,76.9558
TIRUVANNAMALAI,1.84343742813062,-1.10896291959986,0.872511779884415,0.88995764355842,0.508487634415397,1.10855888019688,0.0392935515159383,0.81018056088913,1.48167524979654,-0.709601565148492,-0.191703727289086,1.05994774458011,-0.0731945399965202,0.677270965781732,0.427758543125197,0.672785065664004,0.0370329773491838,Rice,12.2253,79.0747
KANCHIPURAM,-0.533231070452163,-1.10896291959986,0.0422783106039987,-0.0664835828336772,0.0680037959922109,-1.37303601065271,-1.11009944389359,0.147463148434185,-0.485562444779912,-1.166960617325,-1.4178460765337,0.182075573352356,-0.901960309898636,-0.25201154649836,-0.989096849752476,-0.234155616129438,-0.894305227708336,Millet,12.8342,79.7074
Ranipet,1.84343742813062,-1.10896291959986,0.103217611781959,0.621965980005885,-0.16080569422101,-1.37303601065271,-1.11009944389359,0.0622198450058927,0.958217809016963,-0.709601565148492,-1.4178460765337,0.2493311412637,1.05438000615498,-0.222905824011812,0.427758543125197,-0.239043444657946,1.34683504501141,Millet,12.9319,79.3335
TIRUNELVELI,-0.533231070452163,1.10987830168489,-0.380297594393271,0.931116670533165,-0.961658649878566,-1.37303601065271,0.534690406092762,-0.292765271324297,-1.25551942958483,1.16371579781846,0.078517962250235,-1.13939505675536,-0.901960309898636,-0.25201154649836,0.978519866060535,-0.274071109077638,-0.894305227708336,Wheat,8.7139,77.7567
DHARMAPURI,-0.533231070452163,-1.10896291959986,-0.62997285917929,-1.23511771434438,-0.903847006126135,-0.0251279996887787,-0.019346086546279,-1.069757616982,-1.25551942958483,-1.166960617325,-0.970558245505294,-0.595374802694592,-0.901960309898636,-0.956809413603349,-0.989096849752476,-0.961616276353002,0.436879376432729,Millet,12.1211,78.158
KRISHNAGIRI,-0.533231070452163,-1.10896291959986,0.288558436756434,1.07607666842402,-0.761980240109165,0.239176717989176,0.644076814855747,-0.182147617488465,0.97354106144642,0.630904424680036,-0.224104434950264,0.29859650383394,-0.901960309898636,0.0116761251558863,-0.00196277702588303,-0.0383376878655526,1.34683504501141,Millet,12.5307,78.2132
VILLUPURAM,-0.533231070452163,-1.10896291959986,-0.136803195626291,-0.927234838002916,-0.649962686214415,0.678425337507807,-0.407601603421,-0.0936126517227444,-1.25551942958483,0.455223772751396,-0.334598910382308,-0.214880248158185,-0.901960309898636,-0.445039802819543,-0.989096849752476,-0.425171580438193,-0.894305227708336,Millet,11.939,79.4924
VELLORE,-0.533231070452163,-0.241780874565913,-0.670834688047941,-1.5212014050701,-1.02744869619835,0.110363393748405,-0.508685638624676,-0.692373470912693,-1.25551942958483,-1.166960617325,-0.745988361998748,-0.627145922619855,-0.901960309898636,-0.956809413603349,-0.989096849752476,-0.934612193167922,-0.894305227708336,Millet,12.9165,79.1325
DINDIGUL,-0.533231070452163,-1.10896291959986,-0.699967921177156,-1.5212014050701,-1.65955413307123,0.19937695382573,-0.162276051749864,-1.03306591841219,-1.25551942958483,-1.166960617325,-1.4178460765337,-0.643717362104775,-0.901960309898636,-1.02685189014002,-0.00196277702588303,-1.03549515212442,0.0370329773491838,Millet,10.3673,77.9803
NAGAPATTINAM,-0.533231070452163,-1.10896291959986,-1.2881897722181,-1.5212014050701,-1.31946724162737,-1.37303601065271,-1.39433269210843,-1.50946394636649,-0.485562444779912,-1.166960617325,-1.4178460765337,-1.30957075686969,-0.901960309898636,-1.58490545086009,-0.989096849752476,-1.56806724896068,-0.894305227708336,Millet,10.7632,79.8415
PUDUKKOTTAI,-0.533231070452163,-1.10896291959986,-0.512485593579909,-1.5212014050701,-0.514632831615696,-0.474365809529281,-0.252857090519949,-0.641243078530716,-0.76050443917602,-1.166960617325,-1.4178460765337,-0.433852586400504,-0.901960309898636,-0.837718056590053,-0.989096849752476,-0.989984550088277,1.37211627792541,Millet,10.3833,78.8167
RAMANATHAPURAM,-0.533231070452163,-1.10896291959986,-0.119552194105417,-1.23511771434438,-0.0115041500133664,-1.06592772963661,0.569232350418742,-0.811748712024778,-1.25551942958483,-1.166960617325,-1.4178460765337,0.00310883857176898,-0.901960309898636,-0.426601951849996,-0.00196277702588303,-0.41903397897493,0.0370329773491838,Millet,9.37,78.8308
CHENGALPATTU,-0.533231070452163,0.412502632144467,-0.545196048527961,0.288661924270573,-1.39919518931898,-0.34975625041402,-0.162276051749864,-0.768915985357345,0.54472366293947,0.455223772751396,-0.0781204865661908,-0.844632143791568,-0.901960309898636,-0.737679645383005,-0.989096849752476,-0.715892331794255,-0.894305227708336,Pulses,12.6934,79.9833
THIRUVALLUR,-0.533231070452163,-1.10896291959986,-0.781102371465167,-1.5212014050701,-1.1977790221324,-0.0566570003608431,-1.39433269210843,-1.03306591841219,0.379012858445359,-1.166960617325,-1.4178460765337,-0.73485049298453,-0.901960309898636,-1.10715731569121,-0.989096849752476,-1.08526915893599,-0.894305227708336,Millet,13.1432,79.9085
Kasganj,-0.533231070452163,0.824960235668477,0.498454803872044,-1.05776775454598,0.320639237131033,1.14848163555934,-1.39433269210843,-0.811748712024778,1.96740489238451,-1.166960617325,-0.334598910382308,0.747018180660422,-0.0731945399965202,0.347757203495859,-0.989096849752476,0.296342383014095,1.52079789700392,Millet,27.8028,78.6459
LUCKNOW,1.84343742813062,1.10987830168489,1.02290987759242,1.32312597737134,0.949848972440804,0.344365945992591,0.862071055961147,1.00876504096278,1.24253699025192,1.1830154328106,1.54309506622393,0.46789013940639,1.09757442260859,0.966235266221426,-0.00196277702588303,0.96404464439967,1.03100849791164,Millet,26.8467,80.9462
MEERUT,-0.533231070452163,1.57357198767712,1.9951370434405,-0.661629662497564,2.44260787982728,0.923799464599972,0.2484404463754,2.31524791463766,1.64274434660457,-0.709601565148492,1.82151814064932,2.1511445594165,-0.0731945399965202,2.25429872353535,1.68963716869682,2.18067971466749,-0.894305227708336,Rice,28.9845,77.7064
SHAMLI,-0.533231070452163,1.49660639740608,0.867270836017965,1.08542994174181,0.932062774321339,1.17377538831613,-1.11009944389359,1.16696522180368,1.6821764170652,0.724902222240796,1.15498922445428,1.10030744213636,-0.901960309898636,1.0477360447758,-0.989096849752476,1.03873857518435,-0.894305227708336,Millet,29.4491,77.3093
RAE BARELI,-0.533231070452163,-1.10896291959986,1.2621897929996,1.51850385842423,0.625326675386367,1.37464777115892,0.763836424216048,1.17538482387997,1.48664764605596,-0.0687409130205589,0.330499492527238,1.45326359381115,1.89281238273951,-1.48869857546159,-0.989096849752476,1.13661209103427,-0.894305227708336,Millet,26.2303,81.233
BAGHPAT,-0.533231070452163,0.530811104953041,0.626161894558269,0.228474427981242,0.161146056118482,1.28718014048395,-1.39433269210843,0.836095483175741,-1.25551942958483,-1.166960617325,-0.0781204865661908,0.818773767334666,-0.901960309898636,0.443473619017304,-0.989096849752476,0.447588415614883,0.0370329773491838,Millet,28.9445,77.2223
MIRZAPUR,-0.533231070452163,-0.116900659325907,1.56743129918354,0.259258377444295,1.40628942408015,1.70644091626413,1.53564834819924,1.23416426805003,-0.76050443917602,-1.166960617325,1.28181591388319,1.61469703418315,-0.0731945399965202,1.51872285804854,0.681147037548676,1.47809107320458,1.45174203255477,Millet,25.1458,82.5698
KHERI,-0.533231070452163,-1.10896291959986,1.56556647345387,0.913759221435306,1.68476212129721,0.557304698133022,-1.11009944389359,1.7874346538515,0.328002261473526,-0.709601565148492,-0.845440685347881,1.83900874586743,-0.0731945399965202,1.51073930504266,0.85269086413595,1.47473275275014,0.670627747097346,Rice,27.892,80.7989
JHANSI,-0.533231070452163,0.824960235668477,0.34608951472421,-1.05776775454598,-0.145201831806332,1.2624440407929,0.688779241029109,0.260321896337625,-1.25551942958483,0.573706718827752,0.829067331992859,0.151460897612743,-0.901960309898636,0.194570560414008,-0.989096849752476,0.205828889481618,-0.894305227708336,Millet,25.4484,78.5696
AGRA,-0.533231070452163,-1.10896291959986,1.89453633529318,1.87927356705441,1.80585881532579,-0.0900846738311847,1.19244691438411,1.86002306227138,1.46120284777224,0.197682362746914,0.829067331992859,2.11117907571986,1.05438000615498,1.91130722809446,1.15386805048988,1.87405770320444,-0.894305227708336,Rice,27.1767,78.0081
SIDDHARTH NAGAR,-0.533231070452163,-0.408496933848011,0.46951030225263,0.259258377444295,0.118663434470365,0.96534747696851,-1.39433269210843,0.632475941097901,-1.25551942958483,-1.166960617325,0.880128281565127,0.258506883142885,-0.901960309898636,0.228187434856149,-0.00196277702588303,0.235891186741233,-0.894305227708336,Rice,27.2806,83.0702
SHRAVASTI,-0.533231070452163,-0.0176528127910957,-0.14854862977185,-1.5212014050701,-0.152961419147271,0.133954499427521,-1.39433269210843,-0.0663717831115879,0.208753597752566,-1.166960617325,-1.4178460765337,0.00310883857176898,-0.901960309898636,-0.426601951849996,-0.989096849752476,-0.41294433613954,-0.894305227708336,Millet,27.4975,81.9224
VARANASI,-0.533231070452163,-1.10896291959986,1.03933940488489,-0.823210083067414,0.591148600409393,1.64270026968755,-0.220778097108431,1.21329960804369,-0.485562444779912,-1.166960617325,-0.161084856420121,1.2450179929724,-0.901960309898636,0.879630965452705,-0.00196277702588303,0.769437292973644,1.71956379799159,Millet,25.3176,82.9739
SANT KABEER NAGAR,-0.533231070452163,-0.241780874565913,0.41144493405501,0.735494405400692,0.0795453159090551,0.473390882543037,-1.39433269210843,0.462442594791744,0.97354106144642,-1.166960617325,-1.4178460765337,0.597812298472704,-0.901960309898636,0.166251688528957,-0.989096849752476,0.174862475471442,0.0370329773491838,Millet,26.7883,83.0778
BASTI,-0.533231070452163,0.601395701773655,0.646184247120317,0.931116670533165,0.591148600409393,-1.37303601065271,-1.39433269210843,0.63534536997548,1.45593240218422,-1.166960617325,-1.14114593758252,0.890337362205437,-0.901960309898636,0.472889183106038,0.427758543125197,0.471702604008079,0.0370329773491838,Rice,26.7919,82.7326
BALRAMPUR,1.96887247064725,1.0028827587526,1.04525095935122,1.01226236286686,0.95862993399845,0.976728847521255,-1.11009944389359,1.46094430710961,1.61792855771404,1.2820479316956,1.29092539627897,1.1059519051814,-0.0731945399965202,1.41290864353582,0.427758543125197,1.39183572320782,0.670627747097346,Millet,27.4333,82.1833
BHADOHI,-0.533231070452163,-1.10896291959986,0.80399967796425,0.343810916485033,0.578406307543404,1.12214598000626,0.397045663084115,0.81256480620116,0.85449906489746,-1.166960617325,-0.845440685347881,1.01187849595103,-0.901960309898636,0.605650397353933,-0.989096849752476,0.6087777691828,-0.894305227708336,Millet,25.3949,82.5664
MUZAFFARNAGAR,-0.533231070452163,1.59557100153827,1.2190803460556,1.66002513394149,1.37665830095285,0.27640286098397,-0.938832623603654,1.23097989745968,2.14517931411889,0.664855742044932,1.45722184112055,1.44633301951144,-0.901960309898636,1.46786877646636,0.978519866060535,1.44188436622496,-0.894305227708336,Rice,29.4727,77.7085
GHAZIABAD,1.84343742813062,1.48699625127116,1.1012301752945,0.604139788170116,1.14473727630978,1.53529604308209,-0.190661780845773,1.4828810173872,1.25926478362675,-0.294016373087652,1.26324008700424,1.33867571411375,1.0042643462222,1.2488937392888,0.85269086413595,1.2425731553948,-0.894305227708336,Rice,28.6692,77.4538
ALIGARH,1.84343742813062,1.11523928629444,0.0601987311955017,0.547742908856539,0.186609693257551,-0.125664083444282,-0.717652621780602,-0.198047587508995,1.6287413662173,0.197682362746914,0.563844765215673,0.196959488320762,1.16865811039165,0.0190740106012445,-0.989096849752476,-0.0661433512846783,1.63859249325089,Millet,27.8974,78.088
KANPUR NAGAR,-0.533231070452163,0.799995904010244,1.3879131273128,-0.206848938578691,1.66716017013656,-0.0900846738311847,0.223281329188143,1.59619283525888,0.208753597752566,-1.166960617325,0.976657083520988,1.53214543958574,1.52325750929525,1.28630401642113,0.681147037548676,1.29907421466563,1.34683504501141,Millet,26.4499,80.3319
SONBHADRA,1.96887247064725,-1.10896291959986,1.59779816787019,0.595052780508713,1.71697887686089,0.971063984186746,-0.637220415101301,1.82762735589584,-0.485562444779912,-0.294016373087652,1.46911062887334,1.56910623056606,0.297717855845681,1.55249904145501,-0.989096849752476,1.53301554488517,-0.894305227708336,Millet,24.6869,83.068
SITAPUR,-0.533231070452163,1.38498149830896,0.705875439998227,-1.5212014050701,1.12431868903951,0.557304698133022,-0.109955512107797,1.13783931158487,-0.76050443917602,-0.168478175591432,-0.224104434950264,1.17150086070813,-0.0731945399965202,0.802027497595853,-0.989096849752476,0.800663622206631,-0.894305227708336,Millet,27.5706,80.6844
KANNAUJ,-0.533231070452163,0.295092399296492,1.14508008490651,-0.0182415835577,1.24324643799508,0.87265722703387,-0.637220415101301,1.19037799235935,1.5508981423019,-0.709601565148492,-0.377048229460992,1.38645143240881,-0.901960309898636,1.02109166147069,-0.989096849752476,1.01121034433465,-0.894305227708336,Millet,27.0551,79.9187
AYODHYA,-0.533231070452163,-1.10896291959986,1.63451355503958,1.36625068825703,1.23309564755149,1.70644091626413,0.0918506449336912,1.58802721611356,1.91576408855776,0.710753833107728,0.863537758821979,1.78096836761057,-0.901960309898636,1.59430166547251,0.681147037548676,1.56294830867385,0.0370329773491838,Rice,26.7996,82.2041
BAREILLY,1.84343742813062,-0.654871054229865,1.36052222189685,0.259258377444295,0.869677707186937,1.85196346651881,-1.11009944389359,1.53661305965742,1.06896644014177,0.664855742044932,0.684642967436173,1.49000713617373,1.05438000615498,1.2556425493473,-0.00196277702588303,1.24388197143348,-0.894305227708336,Rice,28.367,79.4304
MAU,-0.533231070452163,1.26291547964613,0.641771892020922,1.00712028078982,0.675845964450077,0.473390882543037,-1.39433269210843,1.03778320337785,-1.25551942958483,-1.166960617325,-1.4178460765337,1.06969538581544,-0.0731945399965202,0.656628566377078,0.427758543125197,0.654549637834083,-0.894305227708336,Rice,25.9492,83.5617
FATEHPUR,-0.533231070452163,-1.10896291959986,0.327351194154372,0.931116670533165,-0.0377261948201084,-1.37303601065271,-1.11009944389359,0.469347360975817,-1.25551942958483,-1.166960617325,-1.4178460765337,0.496092851622315,-0.901960309898636,0.0623398485062145,0.427758543125197,0.0653398844330288,0.0370329773491838,Rice,25.9276,80.8128
PRAYAGRAJ,-0.533231070452163,-0.408496933848011,0.849600307362728,1.41627643779829,0.473225962887566,-1.06592772963661,0.595351378105906,0.877094094029492,-1.25551942958483,-0.709601565148492,-0.745988361998748,1.06190437416004,-0.901960309898636,0.66078423131947,-0.00196277702588303,0.658625717971747,-0.894305227708336,Rice,25.4358,81.8463
AMROHA,-0.533231070452163,-1.10896291959986,0.802131129220349,0.430549981377637,0.63443798990082,0.993423006762047,-1.11009944389359,0.976893281363213,-0.153784435716879,-0.709601565148492,0.792712305663684,0.791201012279637,-0.901960309898636,0.596946352659887,-0.989096849752476,0.598126171379187,-0.894305227708336,Millet,28.9031,78.469
SHAHJAHANPUR,-0.533231070452163,-1.10896291959986,0.807726158026538,-1.23511771434438,0.539101695920555,1.33721292859954,-1.39433269210843,0.933507003485929,0.873385561059059,-1.166960617325,-1.14114593758252,1.01392543082316,-0.0731945399965202,0.599128139627562,0.427758543125197,0.595984345738681,-0.894305227708336,Rice,27.8815,79.9099
PRATAPGARH,-0.533231070452163,-1.10896291959986,0.190148461778433,0.772005993113578,-0.193074089515617,-0.474365809529281,-0.717652621780602,0.303111536996207,-0.76050443917602,-0.294016373087652,-1.4178460765337,0.332702250493683,-0.901960309898636,-0.090002704120939,-0.989096849752476,-0.0783213919668395,0.0370329773491838,Millet,25.9176,81.9472
PILIBHIT,-0.533231070452163,-0.654871054229865,1.46846562951121,1.06660569934057,1.00565884160362,1.74930136174001,-0.717652621780602,1.2483815919423,2.06514733418629,0.197682362746914,1.4050612019194,1.41391881232893,0.297717855845681,1.38963605543245,1.15386805048988,1.34861642146042,-0.894305227708336,Rice,28.6274,79.803
AMBEDKAR NAGAR,-0.533231070452163,-1.10896291959986,1.68890136305284,1.21343305792721,1.48141267050186,1.59441976865675,-1.39433269210843,1.89253995926487,1.09305347985571,-0.709601565148492,-0.161084856420121,1.9618114543884,0.297717855845681,1.65926725291558,1.07580207242956,1.61502602076958,0.827877621161334,Rice,26.4348,82.5381
MAINPURI,1.84343742813062,-1.10896291959986,1.11512505324094,0.537879772025413,0.993038762259044,1.20207660061834,1.46514445171334,0.390230293372387,0.468364651590582,0.327381600450906,0.598341669904753,1.23170157626488,1.0042643462222,0.957982485316373,-0.989096849752476,0.957628488079055,0.670627747097346,Millet,27.2312,79.0233
KANPUR DEHAT,-0.533231070452163,0.759130592804157,1.30371040047007,0.00454520651760279,1.39747802001074,1.12661140401432,0.260576935638856,1.47002678799604,0.891572562615488,-0.709601565148492,0.488669324798484,1.52565758904207,1.05438000615498,1.22434345623771,-0.00196277702588303,1.16038931018392,1.66766682028428,Millet,26.4499,79.9499
HAPUR,-0.533231070452163,0.773249640442391,1.07432466026942,0.779089933829392,1.02225608017486,0.998890597914168,-0.45548177532127,1.25151638250884,1.03037645905488,0.396166296506782,0.66978484103084,1.21312944497391,-0.901960309898636,0.972802238440903,-0.00196277702588303,0.96404464439967,0.436879376432729,Millet,28.7306,77.7759
HARDOI,-0.533231070452163,-1.10896291959986,1.17684622794776,1.42830399182352,1.03045893734223,-0.879733210958529,-1.39433269210843,1.3183443906144,1.1483796245446,-0.709601565148492,0.713378069845958,1.29676751783026,-0.901960309898636,1.04307043242206,-0.00196277702588303,1.03114760845426,-0.894305227708336,Rice,27.3942,80.1316
KAUSHAMBI,-0.533231070452163,-0.408496933848011,0.962490586542618,1.32991693038824,0.761691394669594,-1.06592772963661,0.850206333904417,0.896980223164082,0.137704759628641,-0.294016373087652,-1.14114593758252,1.18729511224378,-0.0731945399965202,0.788952606241875,0.427758543125197,0.775004324543405,-0.894305227708336,Rice,25.347,81.3765
UNNAO,-0.533231070452163,-1.10896291959986,0.186399959809737,-0.595891707942512,0.312047643214886,-1.37303601065271,0.739944124143408,-0.302073641992935,-1.25551942958483,-1.166960617325,-0.132053229862561,0.267582752555882,-0.901960309898636,-0.0982914289382087,-0.00196277702588303,-0.0865309271303754,-0.894305227708336,Rice,26.5479,80.4878
SULTANPUR,-0.533231070452163,-1.10896291959986,-0.014242143350523,0.369759507758924,-0.253367298853466,-0.34975625041402,-1.39433269210843,0.0508742278311962,0.271644935069558,-0.709601565148492,-0.104444916933869,0.00937309173688737,-0.901960309898636,-0.318630464422351,-0.00196277702588303,-0.310628415825951,0.0370329773491838,Millet,26.2616,82.0688
GHAZIPUR,-0.533231070452163,-1.10896291959986,0.474844086052588,-0.661629662497564,0.341750440391004,0.87265722703387,-1.11009944389359,0.615071124515622,-0.0391779636754521,0.872078223994275,0.942675846957297,-0.0356090001369991,-0.901960309898636,0.228187434856149,-0.989096849752476,0.238850091730094,-0.894305227708336,Millet,25.5836,83.5801
BULANDSHAHR,-0.533231070452163,0.0643540270456841,0.99236326643804,0.259258377444295,0.774861955045329,1.33075981919656,-1.39433269210843,1.18207391645477,0.328002261473526,-1.166960617325,0.554920984694504,1.12271136601321,-0.901960309898636,0.836876466883877,-0.989096849752476,0.83467756447098,-0.894305227708336,Millet,28.4109,77.8499
CHANDAULI,-0.533231070452163,1.01733129385285,1.35050092023356,-0.927234838002916,1.0958487706055,1.80415287773644,-0.508685638624676,1.57980597927916,1.05644772953865,-0.709601565148492,-1.4178460765337,1.674905053095,-0.901960309898636,1.32152539210124,0.978519866060535,1.30033326901773,-0.894305227708336,Rice,25.2636,83.2846
BARABANKI,-0.533231070452163,-1.10896291959986,-0.185049566062734,0.0882285688678796,-0.475533983147399,-0.0251279996887787,-0.938832623603654,-0.283585129228192,0.770790734041251,-1.166960617325,0.247893990455345,-0.377286335159091,-0.901960309898636,-0.496423513491554,-0.989096849752476,-0.476115143511489,-0.894305227708336,Millet,26.9176,81.1998
JAUNPUR,-0.533231070452163,-1.10896291959986,0.684987754741937,0.859071587777824,0.515379404682982,0.344365945992591,-1.39433269210843,0.735804082310024,1.17868616128452,-1.166960617325,-1.4178460765337,0.88572050337047,-0.901960309898636,0.468037532272779,-0.989096849752476,0.432868516764473,1.43444137723377,Millet,25.7463,82.6836
GAUTAM BUDDHA NAGAR,-0.533231070452163,1.16460207579088,0.223111533357567,0.453411177101756,0.0795453159090551,0.911402526354965,0.16896457342333,0.525971316836953,-0.76050443917602,-0.709601565148492,0.699168957172124,0.373509085758693,1.09757442260859,0.194570560414008,-0.00196277702588303,0.22994803770708,0.0370329773491838,Millet,28.4595,77.5039
ETAWAH,-0.533231070452163,-0.408496933848011,0.317821903975658,-0.0418936128067116,0.263182060776357,0.375587898463834,-1.11009944389359,0.444940557569955,0.0561977636458934,-1.166960617325,-0.295235495682326,0.446140170776375,-0.901960309898636,0.0552577575797372,-0.989096849752476,0.0688433491152696,-0.894305227708336,Millet,26.7852,79.0154
SAHARANPUR,1.98981353650943,-1.10896291959986,1.10262775031365,0.925376304891668,1.036570101446,0.755623666281057,-0.717652621780602,1.14476339739059,1.50599116804176,-0.0687409130205589,0.355724057876391,1.26632704139194,-0.0731945399965202,0.95134456421527,0.978519866060535,0.934924826651131,-0.894305227708336,Rice,29.9678,77.5512
LALITPUR,-0.533231070452163,-0.654871054229865,0.107388464166982,-1.05776775454598,-0.137524860491776,0.722514096158544,0.601687935751275,-0.248070202080573,-1.25551942958483,-1.166960617325,0.330499492527238,0.0399448866724258,-0.901960309898636,-0.176418541195782,-0.989096849752476,-0.15949684217586,-0.894305227708336,Millet,24.6876,78.412
BUDAUN,-0.533231070452163,-1.10896291959986,1.19239130588309,-0.176061130035769,1.19683122516083,1.17789561133389,-1.39433269210843,1.08807841180109,1.82436718783825,-0.709601565148492,-0.104444916933869,1.41391881232893,1.70087699075746,0.897051688145137,-0.989096849752476,1.0537950024809,-0.894305227708336,Millet,28.0347,79.1275
AURAIYA,1.99550395012577,0.848353499754351,0.67650198096407,0.681010666341195,0.761691394669594,-0.163703267677629,-1.39433269210843,0.918625574212179,0.271644935069558,-0.709601565148492,0.276695343635874,0.881082643783516,-0.901960309898636,0.552473275986809,-0.00196277702588303,0.430396323413661,1.70151266470238,Millet,26.6552,79.5185
BANDA,-0.533231070452163,0.194405327588398,0.0377301115389645,0.302885756967578,-0.114970075442314,-0.0566570003608431,-1.11009944389359,0.196415556508094,-1.25551942958483,-1.166960617325,0.217648996356624,0.0339274206192643,-0.901960309898636,-0.218146771013783,-0.989096849752476,-0.210126549321345,0.436879376432729,Millet,25.4864,80.3366
CHITRAKOOT,-0.533231070452163,-0.654871054229865,-0.900823515961597,-1.5212014050701,-0.852089359592529,-1.37303601065271,-0.637220415101301,-1.03306591841219,-0.76050443917602,-1.166960617325,-0.591947363089176,-1.01901210009855,-0.901960309898636,-1.20235071491745,-0.989096849752476,-1.18093792104838,-0.894305227708336,Millet,25.2,81.95
